Address,lat,lng
8 mission street,37.7935617,-122.3930866
550 washington street,37.79586889999999,-122.4027079
24 willie mays plaza suites level,37.7783491,-122.3877002
1428 haight street,37.7702852,-122.4459497
1501 cortland street,37.7399962,-122.409386
1760 polk street,37.7931114,-122.4209327
1401 19th avenue,37.7615231,-122.4772403
3565 20th street,37.758458,-122.4204128
475 06th street k16,37.7763724,-122.4027509
2130 irving street,37.7636449,-122.4809791
2227 irving street,37.7631778,-122.4819282
3558 23rd street,37.7536847,-122.4228097
2700 mission street,37.7539331,-122.4187931
2346 clement street,37.78226799999999,-122.4846027
2425 irving street,37.7631526,-122.4839771
301 battery street fl 2nd,37.7943448,-122.4006632
198 broad street,37.7133768,-122.4588872
919 cortland avenue,37.7391378,-122.4136986
415 mission street,37.7897933,-122.3969619
415 mission street 37th flr coffee bar,37.7898162,-122.3969054
705 divisadero street,37.7761896,-122.4383124
1760 cesar chavez street m,37.7504953,-122.3948735
4 embarcadero ctr bldg r41,37.7954126,-122.395954
4 embarcadero center,37.7953898,-122.3961067
3080 san jose avenue,37.7098384,-122.4579677
2000 ocean avenue,37.7265288,-122.4646146
221 sansome street,37.7924035,-122.4012644
4850 geary boulevard,37.7810935,-122.4715136
1388 46th avenue,37.7607583,-122.50567
5100 geary boulevard,37.7808368,-122.4741754
3400 mission,37.7422192,-122.4223927
707 sutter street,37.7885531,-122.412126
3251 20th avenue 158 op184a,37.72804319999999,-122.4765398
901 columbus avenue,37.8028328,-122.4141211
24 willie mays place upper cf sec 143,37.7783491,-122.3877002
24 willie mays place room 999,37.7783491,-122.3877002
24 willie mays place room 2142,37.7783491,-122.3877002
24 willie mays plaza rm 2127,37.7783491,-122.3877002
24 willie mays place rm 5318,37.7783491,-122.3877002
24 willie mays place rm 5323,37.7783491,-122.3877002
24 willie mays place rm 1144,37.7783491,-122.3877002
24 willie mays place rm 2118,37.7783491,-122.3877002
24 willie mays place rm 2103,37.7783491,-122.3877002
24 willie mays place,37.7783491,-122.3877002
24 willie mays place rm 2134,37.7783491,-122.3877002
24 willie mays place rm 5314,37.7783491,-122.3877002
24 willie mays place 2121,37.7783491,-122.3877002
24 willie mays place 2114,37.7783491,-122.3877002
24 willie mays place 2112,37.7783491,-122.3877002
24 willie mays place rm 3209,37.7783491,-122.3877002
24 willie mays place rm 3222,37.7783491,-122.3877002
24 willie mays plaza room 2130,37.7783491,-122.3877002
24 willie mays place promenade level 2,37.7783491,-122.3877002
24 willie mays place rm 4 10 03,37.7783491,-122.3877002
24 willie mays place view sect 320 rm 5319,37.7783491,-122.3877002
24 willie mays place levi landing,37.7749295,-122.4194155
24 willie mays rm 3232,37.7783491,-122.3877002
24 willie mays place promenade lvl sec 106,37.7783491,-122.3877002
24 willie mays place lower cent fd rm 1144,37.7783491,-122.3877002
24 willie mays place view level sect 311,37.7783491,-122.3877002
24 willie mays place view level sect 317,37.7783491,-122.3877002
24 willie mays place field level rm 1 09 04,37.7783491,-122.3877002
24 willie mays place view lvl sect 331,37.7783491,-122.3877002
24 willie mays place field level,37.7783491,-122.3877002
24 willie mays place field level rm 1 11 11,37.7783491,-122.3877002
24 willie mays place promenade lvl sect 112,37.7783491,-122.3877002
24 willie mays place upper cent fd sect 142,37.7783491,-122.3877002
24 willie mays place upper center fd sec 142,37.7783491,-122.3877002
24 willie mays place promenade level rm 2136,37.7783491,-122.3877002
24 willie mays place promenade lvl near sec 133,37.7783491,-122.3877002
24 place sec 114,37.7749295,-122.4194155
24 willie mays place section 106,37.7783491,-122.3877002
24 willie mays place promenadelvl sect 126,37.7783491,-122.3877002
24 willie mays place promenade lvl sect 117,37.7783491,-122.3877002
24 willie mays place promenade lvl sec 117,37.7783491,-122.3877002
24 willie mays place lvl 48 rm 4 21 02,37.7783491,-122.3877002
24 willie mays place club level rm 232,37.7783491,-122.3877002
24 willie mays place promenade level sec 114,37.7783491,-122.3877002
24 willie mays place lower cent fd sect 142,37.7783491,-122.3877002
24 willie mays place lower cent fd sect 140,37.7783491,-122.3877002
24 willie mays plaza upper cent fd sect 143,37.7783491,-122.3877002
24 willie mays place upper cent fd sect 143,37.7783491,-122.3877002
24 willie mays place field lvl rm 1 11 11,37.7783491,-122.3877002
24 willie mays place view lvl sect 314,37.7783491,-122.3877002
24 willie mays place view lvl sect 324,37.7783491,-122.3877002
24 willie mays place view lvl sect 317,37.7783491,-122.3877002
24 wilie mays place club lvl sect 228,37.7783491,-122.3877002
24 willie mays plaza club lvl sect 232,37.7783491,-122.3877002
24 willie mays place view lvl sect 310,37.7783491,-122.3877002
24 willie mays place view lvl sect 325,37.7783491,-122.3877002
24 willie mays place view lvl sect 318,37.7783491,-122.3877002
24 willie mays place view lvl sect 307,37.7783491,-122.3877002
24 willie mays place view lvl sect 326,37.7783491,-122.3877002
24 willie mays place view level section 332,37.7783491,-122.3877002
24 wilile mays place field level,37.7783491,-122.3877002
24 willie mays place club level section 205,37.7783491,-122.3877002
24 willie mays place club lvl sect 212,37.7783491,-122.3877002
24 willie mays place view level rm 5326,37.7783491,-122.3877002
24 willie mays place promenade lvl sec 115,37.7783491,-122.3877002
24 willie mays place club lvl secti 214,37.7783491,-122.3877002
24 willie mays place promenade lvl sect 130,37.7783491,-122.3877002
24 wilile mays place view level sect 311,37.7783491,-122.3877002
24 willie mays place lower cent fd sect 144,37.7783491,-122.3877002
24 willie mays place field level sec 122,37.7783491,-122.3877002
1727 ocean avenue,37.7246271,-122.4607753
959 geneva avenue,37.7160747,-122.4399012
1501 noriega street,37.7538828,-122.4798713
2948 folsom street,37.7501624,-122.4141189
450 hayes st c 2,37.7769176,-122.4239519
2043 fillmore street,37.7884891,-122.4339618
1 ferry plaza 17,37.7958379,-122.3937801
3316 17th street,37.7635567,-122.4200257
2121 mission street,37.7629542,-122.4191888
940 market street,37.7836441,-122.4088552
2000 hyde street,37.799353,-122.4188908
1994 37th avenue,37.7523998,-122.4954512
1599 haight street,37.7696616,-122.4483383
3174 16th street,37.765043,-122.4235763
655 sutter street,37.788617,-122.4110521
1130 ocean avenue,37.7235483,-122.4538234
416 bay street,37.8057766,-122.4139884
1515 sloat boulevard,37.733913,-122.489317
1820 clement street,37.7825001,-122.4789317
1 ferry building 50,37.7955703,-122.3933208
1 ferry building 15,37.7958379,-122.3937801
1600 stockton street,37.8006342,-122.4090307
off the grid,37.794561,-122.4205446
1101 valencia street,37.7552024,-122.4207904
1 ferry building,37.7954425,-122.3936136
613 york street,37.7614604,-122.4089198
135 powell street,37.7860604,-122.4082781
448 cortland avenue,37.7389038,-122.416742
1101 4th street,37.7743203,-122.3902062
3701 noriega street,37.7528552,-122.5035708
2111 harrison street,37.7639786,-122.4126587
1530 haight street,37.7702281,-122.4475864
850 la playa street,37.7725837,-122.5094277
735 07th avenue,37.7745526,-122.4653886
375 32nd avenue,37.7821392,-122.4929099
730 taraval street,37.7434468,-122.4740564
4950 mission street,37.7199904,-122.4389118
2350 noriega street,37.7542035,-122.4889138
1335 webster street,37.7827604,-122.4314995
680 folsom street 125,37.7845621,-122.3984986
3044 taraval street,37.7422285,-122.4989591
1155 folsom street,37.7756413,-122.4088518
1501 california street,37.7905919,-122.419252
431 bush street,37.7905722,-122.4047361
1634 bush street,37.7883946,-122.4242288
1298 valencia street,37.7523246,-122.4209548
3224 1 2 22nd street,37.7574024,-122.4053803
601 mission bay boulevard,37.7707779,-122.3914399
2550 mission street,37.7560489,-122.4196459
711 fillmore street,37.7760343,-122.4314537
757 beach street,37.8063241,-122.4212867
685 3rd street,37.7792685,-122.392946
1725 haight street,37.7693079,-122.4511505
103 horne avenue,37.7266498,-122.3656532
790 bush street,37.7901244,-122.4103136
1415 18th street,37.76240480000001,-122.3968338
507 columbus avenue,37.7996319,-122.4094865
1524 ocean avenue,37.7246574,-122.4587428
5155 03rd street,37.7313855,-122.3916829
901 clement street,37.78257809999999,-122.4689597
1607 20th street,37.75978190000001,-122.3975209
98 09th street,37.7762712,-122.4150016
1500 market street,37.775254,-122.4195586
399 5th street,37.779432,-122.4019282
1050 valencia street,37.755944,-122.421318
4935 mission street,37.7194197,-122.4386126
446 beach street,37.80730459999999,-122.4163904
1358 mason street,37.7962201,-122.4115034
998 valencia street,37.757027,-122.4213731
1416 haight street,37.77037869999999,-122.4457064
2605 ocean avenue,37.7315244,-122.4734815
1754 polk street,37.7931093,-122.4209725
478 green street,37.7998507,-122.4071195
475 06th street,37.7763724,-122.4027509
800 masonic avenue,37.7738482,-122.4458613
338 grant avenue,37.7902836,-122.4054164
930 geary street,37.7863818,-122.4189219
4683 mission street,37.723318,-122.4355523
5827 geary boulevard,37.779977,-122.4820702
22 peace plaza 510,37.7852733,-122.4291926
1390 market street 110,37.7772044,-122.4173489
1737 post street 300,37.7853026,-122.4291745
820 cortland avenue,37.7387394,-122.4142074
1200 irving street,37.76414279999999,-122.4711816
181 fremont street 7th fl,37.7897432,-122.3953184
3016 taraval street,37.7422985,-122.4985854
3629 taraval street,37.7414594,-122.5052277
3655 lawton street,37.7566773,-122.5023181
800 great highway,37.7727337,-122.5106097
3228 16th street,37.764954,-122.424804
132 embarcadero,37.7929662,-122.3923472
501 columbus avenue,37.7995816,-122.4093867
3123 clement street,37.7814671,-122.492871
1330 25th street,37.7530602,-122.3920816
2600 sutter street,37.7849566,-122.4433842
1417 valencia street,37.7502024,-122.4200411
3585 california street,37.7861846,-122.452872
428 11th street,37.769779,-122.4120171
1708 laguna street,37.786994,-122.4282357
4108 24th street,37.7514046,-122.4344143
2770 taylor street,37.8080996,-122.4155453
401 13th street,37.8284922,-122.3739793
405 howard street,37.7885734,-122.3951353
2020 mission street,37.7646338,-122.4198286
1506 fillmore street,37.7835513,-122.4324432
2512 mission street,37.7567338,-122.4192231
2565 mission street,37.75610169999999,-122.4184863
3198 16th street,37.7650777,-122.4239922
782 arguello boulevard,37.7756466,-122.4580911
384 a hayes street,37.7771087,-122.4226547
825 brotherhood way,37.7138891,-122.47839
2155 bayshore boulevard,37.7126535,-122.4007432
355 n guild avenue,37.7749295,-122.4194155
2 marina boulevard,37.8053418,-122.4324908
397 arguello boulevard,37.7834402,-122.4592374
87 mcallister street,37.7808262,-122.4133679
747 irving street,37.7638621,-122.4660319
3251 20th avenue,37.7277303,-122.4769749
3613 sacramento street,37.787399,-122.45222
633 folsom street,37.7846034,-122.3973043
17 kearny street,37.7881902,-122.4036835
4454 california street,37.7851165,-122.4655212
350 bay street,37.805816,-122.4129787
200 larkin street,37.7801637,-122.4161985
2031 chestnut street,37.800571,-122.4367996
2730 21st street,37.7577971,-122.4094507
24 willie mays plaza,37.7783491,-122.3877002
3049 20th street,37.758945,-122.4114405
606 mission street,37.7879182,-122.4001799
295 terry a francois boulevard,37.7742828,-122.3872082
5214 diamond heights boulevard a,37.7436945,-122.4399332
420 mason street,37.7875748,-122.4098403
431 02nd street,37.7840107,-122.3944576
2368 03rd street,37.7595935,-122.3888102
121 spear street b05,37.7921638,-122.3926569
1801 mcallister street,37.7772103,-122.4419555
3606 taraval street,37.7419299,-122.5049141
1552 fillmore street,37.7840539,-122.4326552
1796 union street,37.7981839,-122.428801
5800 geary boulevard,37.7805498,-122.4817285
1634 irving street,37.7638165,-122.4756979
2794 california street,37.7882756,-122.4403098
205 franklin street,37.7762307,-122.4216053
958 geneva avenue,37.7157885,-122.4403542
2274 lombard street,37.7996734,-122.4389331
4609 mission street,37.724433,-122.4347249
3216 mission street,37.7452578,-122.4204128
1257 taylor street,37.7941628,-122.4132647
339 taraval street,37.7431483,-122.4698584
205 frederick street a,37.7670661,-122.4466132
1379 04th street,37.77089520000001,-122.3903003
300 grove street,37.778191,-122.4218005
100 gough street,37.7742529,-122.4222984
1330 09th avenue,37.7634323,-122.4660298
845 market street 16 ll1,37.7839767,-122.4054904
303 columbus avenue,37.7980785,-122.4073108
1 warriors way level 600 east,37.7680183,-122.3878772
1 warriors way level 600 west,37.7680183,-122.3878772
1 warriors way 200 north west,37.7680183,-122.3878772
1 warriors way level 300 south,37.76847679999999,-122.3865977
1830 harrison street b,37.76801330000001,-122.4135705
1844 san jose avenue,37.728191,-122.4408517
329 west portal avenue,37.7374342,-122.4693135
6050 geary boulevard 101,37.7804084,-122.484582
632 20th street,37.760716,-122.3882106
683 geary street,37.78643599999999,-122.4145057
2123 irving street,37.76319,-122.4808057
646 irving street,37.7642778,-122.4650228
2701 san bruno avenue,37.72759250000001,-122.4033885
180 howard street g2,37.7909652,-122.393166
597 buckingham way,37.730332,-122.4764659
2609 san bruno avenue a,37.7287171,-122.4038507
2646 san bruno avenue,37.7282108,-122.4041176
518 divisadero street,37.7744143,-122.4375299
590 valencia street,37.7635111,-122.4219855
1540 mission street,37.7741159,-122.4182131
3131 fillmore street,37.7983979,-122.4360123
1 warriors way level 300 east,37.76847679999999,-122.3865977
300 clay street 100,37.795315,-122.3991929
225 powell street,37.78679400000001,-122.4083045
138 king street,37.7792827,-122.3908424
431 columbus avenue,37.7990472,-122.4086839
28 fremont street,37.7911933,-122.3978889
425 mission street p 02,37.7898491,-122.3963675
1038 polk street,37.7866507,-122.4196582
1706 church street,37.7434996,-122.4268581
1785 fulton street,37.7757004,-122.446096
900 north point street j101,37.8060737,-122.4223029
2280 market street,37.7648392,-122.4328023
333 bush street,37.7907897,-122.4031102
2246 lombard street,37.7998277,-122.4387809
242 o farrell street,37.7865452,-122.40878
661 divisadero street,37.7757554,-122.4383116
2400 folsom street s,37.7587887,-122.4149268
475 06th street k5,37.7763724,-122.4027509
1661 tennessee street 2j,37.7508806,-122.3881427
1517 pine street,37.7894948,-122.4208029
1422 market street,37.7762288,-122.4183475
2642 ocean avenue,37.7321598,-122.4738176
900 north point e205,37.80564529999999,-122.4235055
2486 sacramento street,37.7900222,-122.4338229
300 bayshore boulevard a,37.743099,-122.405589
1965 jerrold avenue,37.7424423,-122.3967061
1753 carroll avenue,37.7257264,-122.3955407
1601 lane street,37.7316976,-122.3898107
5698 03rd street,37.7265281,-122.3940506
4100 03 street,37.7749295,-122.4194155
5927 california street,37.7838993,-122.4812421
1314 noriega street,37.7543596,-122.4779024
4300 judah street,37.7605215,-122.5082294
805 columbus avenue,37.80226260000001,-122.4134066
450 powell street fl 1 mezzanine,37.78897,-122.4083328
724 bush street,37.7902394,-122.4093288
4555 california street,37.7844957,-122.4665401
2325 taraval street,37.7422627,-122.4912558
1051 ocean avenue,37.7232169,-122.4538807
615 jackson street,37.795996,-122.405546
2218 irving street,37.7635329,-122.4818449
50 08th street,37.7776592,-122.4142959
2786 california street,37.788294,-122.4401882
138 church street,37.7687184,-122.4293401
86 carl street,37.7659778,-122.4496653
3848 geary blvd,37.7814258,-122.4608333
565 green street,37.7994097,-122.4083746
920 sutter street,37.7884412,-122.4156171
2885 diamond street,37.7337611,-122.4339201
888 brannan street 110,37.7716792,-122.4052001
5740 geary boulevard,37.7805064,-122.4812344
3338 24th street,37.752362,-122.4192818
5323 geary boulevard,37.7802318,-122.476644
475 06th street k4,37.7763724,-122.4027509
1331 polk street,37.7892247,-122.4205662
1581 webster street 145,37.7849719,-122.4318523
1516 broadway street,37.7962284,-122.4221715
316 11th street,37.7713355,-122.4137667
545 haight street,37.7718304,-122.4311305
1361 church street,37.7490598,-122.4269721
2669 mission street,37.7544422,-122.4183665
1275 minnesota street,37.7542471,-122.3903999
52 grove street,37.7788729,-122.4171616
700 eddy street,37.7834237,-122.4195169
1414 taylor street,37.7954556,-122.4131058
293 bayshore boulevard,37.7431723,-122.4048082
318 columbus street,37.7982683,-122.4070556
1010 bryant street,37.77239429999999,-122.4075049
601 mission boulevard,37.787704,-122.3997819
1 mobile caterers,37.7219394,-122.37021
386 geary street,37.7873305,-122.4095502
1970 innes avenue,37.74356969999999,-122.395091
550 divisadero street,37.7747991,-122.4373902
2243 mission street,37.7611234,-122.4191329
240 industrial street,37.7386518,-122.4054019
121 spear street b09,37.7920283,-122.3927033
845 market street fe2,37.7839767,-122.4054904
3170 16th street,37.7650783,-122.4234876
1 warriors way level 300 north,37.76847679999999,-122.3865977
1 warriors way lvl 600 east,37.7680183,-122.3878772
5001 03rd street,37.7329197,-122.3910249
2315 clement street,37.7818922,-122.4841803
3859 24th street,37.751541,-122.4287947
nan,37.7749295,-122.4194155
135 04th street 4536,37.7843318,-122.4033663
1 post street,37.7887655,-122.402598
1001 howard street,37.7794161,-122.4071276
101 hyde street,37.7818595,-122.4158888
1415 green street,37.7976792,-122.4225021
458 grove street,37.7778245,-122.4242288
1320 castro street,37.7509101,-122.4342714
680 02nd street,37.7806831,-122.3913735
1085 mission street,37.7794022,-122.4103967
995 valencia street,37.7571135,-122.4209621
pier 39 a 101,37.7692905,-122.4179016
560 central avenue,37.7749805,-122.4442761
1298 church street,37.750213,-122.4275689
1813 fulton street,37.7755946,-122.4470168
2955 clement street,37.7815661,-122.4911024
912 sutter street,37.7885273,-122.4155204
701 cole street,37.7684425,-122.4507268
600 south van ness avenue 2,37.7634182,-122.4174906
1463 haight street,37.7698721,-122.4463965
4541 irving street,37.7620853,-122.5067739
400 eddy street,37.7838284,-122.4144756
833 cortland avenue,37.7390822,-122.4141521
320 o farrell street,37.7862809,-122.4101816
2 embarcadero center street level,37.79478810000001,-122.3984101
3251 20th avenue 157,37.7277303,-122.4769749
4058 18th street,37.7611284,-122.4340945
865 market street fe6,37.7840569,-122.4061984
3251 20th avenue 250d,37.7277303,-122.4769749
1730 yosemite avenue,37.7284622,-122.3940067
2237 polk street,37.7975018,-122.4223264
3344 steiner street,37.8003047,-122.437717
1 ferry building 7,37.7958379,-122.3937801
1 ferry building kiosk 56,37.7958379,-122.3937801
115 sansome street,37.7914384,-122.4010827
1385 4th street,37.7711043,-122.3910746
168 02nd street,37.7870471,-122.3988532
199 sutter street,37.7897155,-122.4036683
2 south park,37.7824242,-122.3932435
2453 fillmore street,37.7923084,-122.4349129
250 howard street,37.7902773,-122.3941453
55 south van ness avenue,37.7738774,-122.4185582
705 market street,37.787128,-122.4036425
909 montgomery street 105,37.7973773,-122.4038434
2567 gough street,37.7970802,-122.4273258
302 randolph street,37.7144818,-122.4655812
227 front street,37.7937771,-122.399096
420 folsom street,37.7880448,-122.3939606
55 2nd street,37.7887443,-122.4004663
562 sutter street,37.7893265,-122.4098068
685 market street,37.7877269,-122.4026141
4780 mission street,37.721757,-122.4372796
260 5th street,37.780687,-122.4041559
1002 16th street,37.7665419,-122.39716
1522 fillmore street,37.7836805,-122.4326649
8 octavia street,37.7722677,-122.4232829
836 divisadero street 1,37.7774899,-122.4379982
429 stockton street,37.7899784,-122.4072962
1770 fulton street,37.7760787,-122.4462163
3811 noriega street,37.7527788,-122.5045965
600 york street,37.7617017,-122.4093612
736 valencia street,37.7611256,-122.4218176
601 baker street,37.776526,-122.4417303
700 columbus avenue,37.8013389,-122.4113937
138 mason street,37.7848604,-122.4092515
3321 steiner street,37.8000326,-122.438117
188 hooper street fl 1st,37.7677341,-122.4007813
100 hooper street 4th fl,37.7689685,-122.3985866
888 brannan street 1st fl,37.7716792,-122.4052001
101 california street fl 3,37.7930401,-122.3980315
333 brannan street,37.7808673,-122.3925739
1275 market street fl 2nd,37.7775176,-122.4157257
555 california street 51st floor,37.7926278,-122.4035395
1455 custer avenue,37.744639,-122.3886015
1515 3rd street fl 2nd,37.7691321,-122.3888898
pier the embarcadero street,37.778416,-122.3863482
2850 21st street,37.7576282,-122.4116117
135 04th street fc10,37.7843318,-122.4033663
2257 chestnut street,37.8001203,-122.4404711
2227 polk street,37.7972922,-122.4222821
500 marina boulevard,37.8058716,-122.4424246
685 harrison street,37.7827037,-122.3968287
5170 mission street,37.7160296,-122.4415575
199 new montgomery street a,37.7866055,-122.3990994
2516 noriega street,37.7538327,-122.4908305
2551 noriega street,37.7533577,-122.491235
1132 valencia street,37.754737,-122.4211357
555 geary street,37.7866605,-122.4124094
101 hyde street k22,37.7818595,-122.4158888
200 van ness avenue,37.7775122,-122.4194314
14 mint plaza,37.782741,-122.4081153
155 montgomery street,37.79075539999999,-122.4025698
1958 polk street,37.7946958,-122.4213341
428 11 street,37.769779,-122.4120171
488 a hayes street,37.7768528,-122.4243806
170 king street 109,37.7787699,-122.3913674
5145 mission street,37.716521,-122.440784
888 o farrell street 105,37.7852961,-122.4190132
1408 clement street,37.7826949,-122.4744036
1900 clement street,37.7824281,-122.4797387
2499 san bruno avenue,37.7304608,-122.4046311
3275 22nd street,37.7551823,-122.4203797
2 clement street,37.7833231,-122.4592426
3420 18th street,37.7619676,-122.4200478
2704 24th street,37.7530935,-122.4067337
1710 mission street,37.7697394,-122.4203797
426 brannan street,37.7796646,-122.3952601
210 columbus avenue,37.7973243,-122.4056692
1640 haight street,37.7699313,-122.4493157
4697 mission street,37.7232293,-122.4357561
684 broadway street,37.7977973,-122.4083696
525 valencia street,37.7644583,-122.4215598
pier 39 204,37.8096632,-122.4102547
219 king street,37.7773451,-122.3923013
3115 22nd street,37.7553959,-122.4171097
1 warriors way level 200 west,37.7680183,-122.3878772
1 warriors way level 300 west,37.76847679999999,-122.3865977
901 16th street,37.7662746,-122.3953111
490 illinois street,37.7663255,-122.3886091
107 leland avenue,37.7118779,-122.4059108
90 charter oak avenue,37.736888,-122.4050063
601 mission bay n boulevard,37.7707779,-122.3914399
650 market street,37.788466,-122.4027612
1377 fell street,37.7733405,-122.4404278
601 mission bay boulevard n,37.7707779,-122.3914399
640 jackson street,37.796365,-122.40598
819 van ness avenue,37.7831137,-122.4212617
1701 fillmore street,37.7852854,-122.433317
1690 valencia street,37.7458478,-122.4204018
3900 geary boulevard 101,37.7814099,-122.4612581
380 golden gate avenue,37.7816033,-122.4169301
90 charter oak avenue k3,37.736888,-122.4050063
211 valencia street,37.7696078,-122.4221012
8 mint plaza,37.7829306,-122.4079895
3815 geary boulevard,37.7809921,-122.4603689
5423 geary boulevard,37.7801158,-122.4777046
366 columbus street,37.7986194,-122.4075046
690 indiana street,37.7619033,-122.3919046
3318 fillmore street,37.8002278,-122.4358347
3717 balboa street,37.7754555,-122.4987623
2848 23rd street,37.75456020000001,-122.4091497
365 11th street,37.771307,-122.4129061
4800 03rd street,37.734788,-122.3909973
22 ross aly,37.7956215,-122.407272
2121 clement street,37.7820007,-122.4821251
1355 market street 100 c,37.7769754,-122.4164009
1044 shary cir,37.95365779999999,-122.031913
1355 market street 160,37.7769754,-122.4164009
325 mason street 10,37.7866134,-122.4099394
151 3rd street level 5,37.7858686,-122.400667
550 15th street,37.7674512,-122.4063277
888 innes avenue,37.7320465,-122.3753514
674 broadway street,37.7979802,-122.4082296
4201 geary boulevard,37.7808333,-122.4644444
2701 leavenworth street,37.8061134,-122.4189153
3985 17th street,37.7624145,-122.4347267
3388 19th street,37.7601242,-122.4188385
2301 mission street,37.760096,-122.418862
345 03rd street,37.7832687,-122.3978879
1701 yosemite avenue,37.7278193,-122.3938398
1600 guerrero street,37.7454573,-122.4224591
835 geary street,37.7860348,-122.4169416
4794 mission street,37.7213926,-122.4375273
199 museum way,37.764511,-122.4379783
1032 clement street,37.7828063,-122.4705103
791 o farrell street,37.7850326,-122.4175106
470 post street,37.7882578,-122.4095701
1777 steiner street,37.7855652,-122.4349939
464 castro street,37.7614765,-122.4352985
850 stockton street,37.7938304,-122.4076603
236 townsend street,37.7782124,-122.3939082
1998 polk street,37.794945,-122.4214533
201 steiner street,37.771083,-122.4320962
610 long bridge,37.7735205,-122.3916911
1246 folsom street,37.7746,-122.411015
16 california street,37.7938297,-122.3967229
1252 valencia street,37.7526833,-122.4209991
401 van ness avenue,37.7795597,-122.4205316
1799 church street,37.7422238,-122.4263748
406 ellis street,37.7850066,-122.4130964
888 geneva avenue,37.7166427,-122.4413998
517 o farrell street,37.7856142,-122.413415
2200 mason street,37.803979,-122.4131233
133 o farrell street,37.7864178,-122.4073043
460 16th street,37.7669263,-122.389806
530 parnassus avenue,37.7636336,-122.4591526
102 south park street,37.7818375,-122.3944607
2560 marin street,37.748668,-122.4031672
59 columbus avenue,37.7961256,-122.40448
160 07th street,37.77832069999999,-122.4102411
574 green street,37.799772,-122.4086353
308 05th avenue,37.7826877,-122.4631994
68 west portal avenue,37.7402436,-122.4668701
4828 geary boulevard,37.78096790000001,-122.4712911
719 taraval street,37.7429588,-122.473979
550 green street,37.7998171,-122.4083243
1234 great highway,37.7630811,-122.5095382
3555 cesar chavez street,37.7474776,-122.4209371
1101 van ness avenue,37.7858698,-122.4222677
355 11th street,37.77129499999999,-122.41304
747 03rd street,37.7785168,-122.3920417
2272 market street,37.7649976,-122.4325995
250 04th street,37.7823863,-122.402097
431 balboa street,37.7770107,-122.463509
572 o farrell street,37.7858328,-122.4141612
839 clay street,37.794012,-122.4070784
641 vallejo street,37.7985196,-122.4084122
1888 mission street,37.7668918,-122.4201865
500 parnassus avenue,37.7634326,-122.4587055
2763 mission street,37.75293670000001,-122.4183345
2909 mission street,37.7504668,-122.4180347
2999 mission street,37.7492033,-122.4179217
3020 16th street,37.7652085,-122.4201582
2934 24th street,37.7529449,-122.410657
4555 mission street,37.7252964,-122.4340159
294 turk street,37.7829857,-122.4139137
2351 mission street,37.7593428,-122.4188975
1170 4th street,37.773688,-122.3916514
2052 mission street,37.764116,-122.4199463
2416 market street,37.7627533,-122.4356674
564 castro street,37.7599064,-122.4351365
3147 16th street,37.7647308,-122.4231086
2346 chestnut street,37.8002501,-122.4419978
1441 stockton street,37.7991682,-122.4091601
108 channel street fl 17,37.7749787,-122.3905582
4019 judah street,37.7602522,-122.5051395
3193 mission street,37.7457048,-122.4195173
388 market street 104,37.7920698,-122.3983425
242 townsend,37.7782029,-122.3939124
1900 hayes street,37.7738409,-122.4479843
2176 mission street,37.7621427,-122.4196994
1801 haight street,37.7691623,-122.4520759
2375 market street,37.7629134,-122.4343726
1019 market street,37.7814619,-122.4104021
2723 oakdale avenue,37.7419214,-122.4036351
272 claremont boulevard,37.7410872,-122.4650679
2240 taraval street,37.7426561,-122.4903723
613 faxon avenue,37.7250963,-122.4601537
1335 powell street,37.796961,-122.410461
1030 irving street,37.7641735,-122.4690756
400 california 536 mission st truck stop,37.7506499,-122.4183132
2650 18th street,37.7621342,-122.4089639
425 mission street 139,37.7898491,-122.3963675
1 warriors way event level south,37.7680183,-122.3878772
1 warriors way event level south east,37.7680183,-122.3878772
1 warriors way event level south west,37.7680183,-122.3878772
1325 ocean avenue,37.7237839,-122.4566869
5120 geary boulevard,37.7808267,-122.4744322
838 divisadero street,37.777452,-122.4380092
834 divisadero street,37.77745,-122.4379899
1224 grant avenue,37.7983666,-122.4069285
2726 san bruno avenue,37.727183,-122.4037486
418 beach street,37.8075315,-122.4160131
1552 ocean avenue,37.7247186,-122.4590641
1312 chestnut street,37.8023767,-122.4251545
2331 chestnut street,37.79984,-122.4417344
200 pine street,37.7923595,-122.4001359
1401 18th street,37.7624072,-122.3967982
1401 a 18th street,37.7624072,-122.3967982
807 valencia street,37.7599064,-122.4212375
660 e gish road,37.7749295,-122.4194155
131 06th street,37.780747,-122.4081357
468 ellis street,37.7849534,-122.4139178
1434 lombard street,37.80155,-122.4253055
622 green street,37.7995614,-122.4096741
2943 16th street,37.7650123,-122.4184796
3166 24th street,37.7525968,-122.4156786
726 clement street,37.7830006,-122.4671354
295 orizaba avenue,37.7141355,-122.4629561
644 broadway street,37.79803630000001,-122.4078842
644 broadway street 2nd floor,37.79803630000001,-122.4078842
1315 noriega street,37.75421420000001,-122.4785679
870 washington street,37.7951026,-122.4076269
3416 balboa street,37.7759949,-122.4956154
2675 geary boulevard,37.7814987,-122.4471555
50 california street,37.7940821,-122.39741
211 sutter street,37.78966399999999,-122.404087
3251 20th avenue op183,37.7277303,-122.4769749
400 howard street 110,37.7891003,-122.3958433
3369 mission street,37.7426508,-122.4215735
882 sutter street,37.7885879,-122.4148268
1399 church street,37.7486499,-122.4269718
2193 mission street,37.7620356,-122.4191839
5203 geary boulevard,37.7802701,-122.4752724
915 kearny street,37.7964178,-122.4053695
4615 mission street,37.7243666,-122.4347648
248 fillmore street,37.7718401,-122.4302879
1926 broderick street,37.7886161,-122.4420129
401 hayes street,37.7767029,-122.4231847
570 green street,37.7997609,-122.4085676
3332 18th street,37.7621268,-122.4179173
1798 church street,37.7422398,-122.426778
pier 39 167,37.8096632,-122.4102547
2341 folsom street,37.7598531,-122.4145505
710 post street,37.78780649999999,-122.4137382
1400 california street,37.7911183,-122.4175731
500 terry francois boulevard 190 400,37.7706975,-122.3867699
1790 haight street,37.769602,-122.4516209
1650 holloway avenue west plaza,37.7225486,-122.4788914
50 phelan avenue,37.7277709,-122.452029
1148 mission street,37.7785438,-122.4121542
1 warriors way lvl 500 north,37.7680183,-122.3878772
2298 mission street,37.7603666,-122.4195369
750 ellis street,37.7842812,-122.4185598
45 olive street,37.784407,-122.4185789
45 olive street bldg,37.784407,-122.4185789
2101 ingalls street,37.7257465,-122.3867452
174 06th street,37.7799495,-122.4076893
1000 van ness avenue 100,37.7851723,-122.4200036
1108 stockton street,37.7960781,-122.4080825
1836 divisadero street,37.7867393,-122.4398896
333 o farrell street,37.7857289,-122.4104463
164 06 street,37.7749295,-122.4194155
727 golden gate,37.7803797,-122.4228794
1689 church street,37.743924,-122.4265863
755 font boulevard 107,37.7228231,-122.4844324
1509 haight street,37.7698968,-122.4472056
1581 webster street 240,37.7851183,-122.4321064
1355 market street 180,37.7768608,-122.4162885
915 columbus street,37.8029543,-122.4143041
3471 mission street,37.7412728,-122.4225034
652 market street,37.7884553,-122.4027902
101 montgomery street street 100c,37.790395,-122.4026023
433 kearny street a,37.7922079,-122.4045014
1 california street 130,37.7933279,-122.397348
655 montgomery street n bldg,37.7952421,-122.403654
1206 masonic avenue,37.77006,-122.4451093
2761 21st street,37.7574633,-122.4099452
3139 mission street,37.7470176,-122.4187052
57 columbus avenue,37.796083,-122.4044721
pier 45 shed b,37.80968,-122.4174783
1552 polk street,37.7913595,-122.4205787
110 the embarcadero,37.7932568,-122.3926127
1910 fillmore street,37.7874197,-122.4333838
1851 noriega street,37.7536667,-122.4837906
100 connecticut street,37.764953,-122.39807
900 avenue d avenue,37.8262741,-122.3739443
55 music concourse drive,37.7698299,-122.466104
3 embarcadero ctr fl 20,37.7946371,-122.3975692
3 embarcadero ctr fl 21,37.7946371,-122.3975692
1380 sutter street,37.7875147,-122.4229549
601 van ness avenue,37.7814909,-122.4208963
103 waverly place,37.7943111,-122.4069444
2223 market street,37.7651206,-122.4313774
4092 18th street,37.7610237,-122.4346283
1700 fillmore street,37.7853296,-122.4329485
4342 california street,37.7852629,-122.4642608
4400 17th street,37.7621427,-122.443458
3240 geary boulevard,37.7818633,-122.4539139
2909 16th street,37.7649998,-122.4178959
2953 baker street,37.798338,-122.4460913
761 post street,37.7872071,-122.4142435
965 sutter street c,37.788197,-122.4159776
45 castro street,37.7689314,-122.4354534
pier 39 213,37.8096632,-122.4102547
pier 45 shed b d,37.80968,-122.4174783
1434 18th street,37.7626571,-122.3973414
2240 chestnut street,37.8004655,-122.4402056
1598 yosemite avenue,37.7269444,-122.3913889
1650 holloway avenue sb109,37.7224845,-122.478519
2257 san jose avenue,37.7208369,-122.4460824
3106 16th street,37.7650443,-122.4221786
1601 turk street,37.7797026,-122.4360345
58 leland avenue,37.7118451,-122.4048045
5214 diamond heights boulevard,37.7437254,-122.4399407
673 portola drive,37.7446193,-122.4525071
900 stanyan street,37.7662724,-122.4527283
2200 jerrold avenue z,37.7463353,-122.3982449
1760 cesar chavez street,37.7504953,-122.3948735
1750 cesar chavez d,37.7508003,-122.3944776
522 columbus avenue,37.7999127,-122.409318
1220 polk street,37.788118,-122.4200396
1596 market street,37.7744592,-122.4206809
899 hyde street,37.7889819,-122.4171572
1746 post street,37.7856787,-122.4305775
1 ferry bldg 50,37.7955703,-122.3933208
1 market street 8,37.7941766,-122.3948205
90 charter oak avenue bldg k4b,37.736888,-122.4050063
3486 b mission,37.7409943,-122.423167
2379 chestnut street,37.799903,-122.4424552
1398 mission street,37.7755377,-122.4159116
200 clement street,37.7832251,-122.4613808
2800 california street 102,37.7882935,-122.4407877
4724 mission,37.7227001,-122.4366216
3500 geary boulevard,37.7816588,-122.4568748
896 sutter street,37.7886251,-122.4150795
2810 diamond street,37.7343001,-122.4341277
475 06th street k15,37.7763724,-122.4027509
845 market street street fl 12,37.7843885,-122.4067847
507 divisadero street,37.7743734,-122.4379874
approved locations,37.7815548,-122.4114725
601 misson bay boulevard,37.7707491,-122.3916769
601 mission street,37.787704,-122.3997819
1900 19th avenue,37.7521171,-122.4759953
1385 09th avenue,37.7624165,-122.4664278
11 phelan avenue,37.7290792,-122.4524668
11 phelan avenue room 198,37.7290792,-122.4524668
2778 24th street,37.7531192,-122.4078276
475 06th street k23,37.7763724,-122.4027509
407 clement street,37.7828148,-122.4636343
900 avenue street bldg d,37.7749295,-122.4194155
701 columbus avenue,37.8011944,-122.4117326
201 a turk street,37.7828752,-122.4125465
3995 alemany boulevard 3001,37.7104386,-122.467575
1661 tennessee street 2k,37.7508943,-122.3881203
3995 alemany boulevard,37.7104386,-122.467575
1620 post street,37.7859168,-122.4285724
2736 24th street,37.7530202,-122.4072086
1 ferry building 21,37.7958379,-122.3937801
2535 03rd street,37.757324,-122.3879397
186 eddy street,37.7842902,-122.4107766
1781 church street,37.7424992,-122.4262632
3410 judah street,37.7609533,-122.4987397
4033 judah street,37.7603345,-122.5054067
280 valencia street,37.7685083,-122.4225439
1 ferry building 14,37.7958379,-122.3937801
298 alabama street,37.7658031,-122.4126078
740 valencia street,37.7610338,-122.4218607
425 barneveld avenue,37.7408486,-122.4031008
474 geary street,37.7870927,-122.41102
045 castro street,37.7689314,-122.4354534
3928 irving street,37.76272609999999,-122.5001615
1014 clement street,37.782907,-122.4702001
1788 32nd avenue,37.7539493,-122.4902027
321 kearny street,37.7910793,-122.404362
301 king street b,37.7757349,-122.3936488
1168 folsom street,37.7757635,-122.4096278
1142 valencia street,37.7546349,-122.4211448
600 o farrell street,37.7856829,-122.4147953
59 new montgomery street,37.7881024,-122.4010995
855 bush street,37.7896349,-122.4113617
370 04 street,37.7749295,-122.4194155
37 yerba buena ln,37.7858018,-122.4042441
2449 23rd street,37.7543103,-122.4043177
752 jackson street,37.7961783,-122.4075701
1767 church street,37.7425961,-122.4263966
200 ocean avenue,37.7234376,-122.4412609
816 mission street,37.7843479,-122.40507
1339 folsom street,37.7732795,-122.4120148
2708 24th street,37.7531052,-122.4068628
3876 noriega street,37.7531976,-122.505029
3619 balboa street,37.7755224,-122.4977012
751 diamond street,37.7512857,-122.4361428
2575 judah street,37.7610021,-122.4896791
716 jackson street,37.7961474,-122.4070796
675 broadway street,37.7975019,-122.4081675
2237 taraval street,37.7422404,-122.4903326
601 grant street,37.7925955,-122.4061307
2520 san bruno avenue,37.7296615,-122.4048103
3398 balboa street a,37.7759356,-122.495049
18 boardman place,37.7747915,-122.4033657
2522 ocean avenue,37.731567,-122.472567
2154 mission street,37.76251999999999,-122.4197008
25 mason street,37.783536,-122.4094065
450 broadway street,37.7983066,-122.4047802
1115 clement street,37.7824776,-122.4712482
4543 mission street,37.7254537,-122.4339425
501 dolores street,37.7613367,-122.4257804
698 guerrero street,37.760086,-122.423948
3543 18th street 8,37.7614199,-122.4226186
1000 potrero avenue,37.7560288,-122.4069285
433 precita avenue,37.7474619,-122.4106479
876 geary street,37.7863106,-122.4176875
320 bayshore boulevard,37.7428323,-122.4057885
3116 noriega street 38th,37.7536179,-122.4972395
5200 geary boulevard,37.7807121,-122.4750029
6905 geary boulevard,37.7794685,-122.4936178
3161 24th street,37.7522822,-122.4155041
920 3 street,37.7771873,-122.3910486
764 harrison street,37.7815308,-122.3990101
1210 stockton street,37.7969543,-122.4082991
1549 polk street,37.7912275,-122.4210986
1723 buchanan street,37.7860127,-122.4301572
395 hayes street,37.7768119,-122.4228144
251 rhode island,37.766538,-122.4023928
2956 24th street,37.7528829,-122.4112649
4587 mission street,37.7248271,-122.4344878
550 d gene friend way,37.7690999,-122.3901223
1455 market street 3c,37.77570499999999,-122.4181662
5700 geary boulevard,37.7805003,-122.4807164
1671 haight street,37.7694496,-122.450079
350 golden gate avenue 2nd floor,37.7818193,-122.4164206
520 gough street,37.7783944,-122.4231234
555 folsom street,37.786381,-122.3953683
1400 yosemite avenue,37.724926,-122.3879589
2512 clement street,37.78217009999999,-122.4863637
3751 geary boulevard,37.7809313,-122.4598333
3233 22nd street,37.7552119,-122.4195362
3319 balboa street,37.7756774,-122.494519
298 gough street,37.7757832,-122.4226361
335 noe street,37.7635606,-122.4328039
1935 taraval street,37.7423398,-122.4870484
1309 09th avenue,37.7637588,-122.4665472
1123 taraval street,37.7428181,-122.4783734
2114 fillmore street,37.7893072,-122.4337158
11 division street,37.7697582,-122.4026362
191 warriors way 101,37.7676662,-122.3886226
1809 union street,37.797808,-122.4292
408 dewey boulevard,37.7473364,-122.4595838
2328 irving street,37.7634857,-122.4830475
110 yacht road,37.8058478,-122.4474647
314 sutter street,37.7898545,-122.4059315
735 3rd street,37.7786151,-122.3921369
840 folsom street,37.7813711,-122.4022992
213 king street,37.7776223,-122.3920148
2501 phelps street,37.7297679,-122.4002282
3400 geary boulevard,37.7816507,-122.4557113
1097 irving street,37.7637847,-122.4693557
301 pine street,37.791826,-122.4013526
747 market street,37.786607,-122.4043669
2234 chestnut street,37.8005104,-122.4400712
50 beale street,37.7913774,-122.3963271
1560 mission street,37.7734875,-122.4184539
44 west portal avenue,37.7404729,-122.4665621
718 irving street,37.7642544,-122.4656871
1516 folsom street,37.7718315,-122.4145399
294 ivy street,37.7775156,-122.4227533
101 horne avenue,37.7270417,-122.3655412
1040 revere avenue 2,37.7258936,-122.3797328
124 columbus avenue,37.7966179,-122.4046522
800 divisadero street,37.7770622,-122.4379846
951 irving street,37.7637425,-122.4682853
515 bay street,37.8052263,-122.4156012
1323 columbus avenue,37.8063226,-122.419178
1400 taraval street,37.7429546,-122.481231
3456 mission street,37.74147960000001,-122.4228598
3015 mission street,37.7488491,-122.4179037
1 boutwell,37.7379105,-122.4055789
1100 franklin street,37.7846988,-122.4227389
1800 folsom street,37.7676187,-122.4161734
1131 taraval street,37.7427808,-122.4784231
5298 3rd street,37.7294589,-122.3929446
3435 mission street,37.7417304,-122.4221052
2 townsend street,37.7823344,-122.3890279
1725 polk street,37.7927954,-122.4213895
2022 mission street,37.7645655,-122.419893
2301 bryant street,37.75748919999999,-122.4093622
4600 mission street,37.7246055,-122.4352468
2301 mission street spc c,37.7601146,-122.418809
1230 grant avenue,37.798469,-122.4070677
601 mission bay boulevard 109947,37.7707779,-122.3914399
4591 mission street,37.7247424,-122.4344908
600 monterey boulevard,37.7318278,-122.4492069
3047 mission street,37.7484359,-122.4178577
1327 polk street,37.7890509,-122.4205784
3119 clement street,37.7814572,-122.4927825
2406 bryant street,37.7557692,-122.4096277
2780 21st street,37.757712,-122.410431
3077 24th street,37.7524332,-122.4134542
3322 mission street,37.7436516,-122.4215023
1198 treat avenue,37.7510645,-122.4129829
1601 mission street,37.7721023,-122.418809
879 brannan street,37.7714964,-122.4049548
5173 mission street,37.7158525,-122.4411418
101 townsend street,37.7802225,-122.3905874
2293 mission street,37.7604692,-122.4189732
1 ferry building 20,37.7958379,-122.3937801
1654 haight street,37.7698835,-122.4495247
627 irving street,37.7639511,-122.4647401
855 divisadero street,37.777561,-122.4385212
2491 mission street,37.7572679,-122.418732
491 o farrell street,37.7856889,-122.4127791
2832 middlefield road,37.732252,-122.4863034
599 o farrell street,37.785436,-122.4144343
2907 16th street,37.7650431,-122.4178107
562 market street,37.7900372,-122.4012019
165 o farrell street 4th floor,37.7862462,-122.407371
1916 hyde street street,37.7986649,-122.4187868
400 grove street c1,37.7779769,-122.4235297
705 geary street,37.7863913,-122.4150022
301 25th avenue,37.78363,-122.4853013
2893 mission street,37.7508114,-122.4181518
1635 divisadero street 145,37.7845754,-122.4400886
3230 mission street,37.7450749,-122.4205234
418 larkin street,37.7817959,-122.4171061
838 grant avenue sixth fl,37.79485440000001,-122.4060656
22 04th street 100,37.7852274,-122.4055461
1401 powell street,37.797597,-122.4105071
3065 jackson street,37.7908969,-122.4454781
1055 ellis street,37.7832683,-122.4233305
1890 bryant street 101,37.7632367,-122.4107118
101 hyde street k19,37.7818595,-122.4158888
2951 24th street bldg,37.7525141,-122.4111322
1 front street,37.791999,-122.3988258
pier 45,37.80968,-122.4174783
2539 mission street,37.7564221,-122.4185289
2937 mission street,37.7500508,-122.4180884
4495 mission street,37.7263543,-122.4333723
868 mission street,37.7834625,-122.4059176
4715 geary boulevard,37.7805964,-122.4699092
1980 union street a,37.7977267,-122.4319881
3911 alemany boulevard 1001,37.7110027,-122.4668071
558 castro street,37.7599424,-122.435178
250 howard street 27th fl,37.7902773,-122.3941453
181 fremont street fl 5th,37.7897432,-122.3953184
181 fremont street fl 6th,37.7897432,-122.3953184
250 howard street fl 11 and basement,37.7902773,-122.3941453
250 howard street fl 12,37.7902773,-122.3941453
250 howard street fl 25,37.7902773,-122.3941453
250 howard street fl 28,37.7902773,-122.3941453
950 mason street,37.7923883,-122.4100923
425 ellis street,37.7845459,-122.4132313
1362 stockton street,37.7984886,-122.4086339
2684 san bruno avenue,37.7277452,-122.4039527
1 ferry building 34,37.7958379,-122.3937801
754 post street,37.7878059,-122.4143607
1 warriors way level 300 north west,37.76847679999999,-122.3865977
710 florida street,37.76017909999999,-122.4112667
2598 san bruno avenue,37.7288973,-122.4043648
1 ferry plaza bldg 13,37.79583909999999,-122.393741
3614 18th street,37.761655,-122.4243005
1009 guerrero street,37.7548165,-122.4229015
1230 market street,37.7784385,-122.4155226
790 lombard,37.8028856,-122.4145614
1316 noriega street,37.7543516,-122.4779481
1626 taraval street,37.7429316,-122.4837625
2333 irving street,37.76306599999999,-122.483116
2290 mission street,37.7604331,-122.4195947
155 5th street,37.7821229,-122.4054616
3157 geary boulevard,37.781469,-122.4529794
429 gough street,37.7772496,-122.4232435
221 04th street,37.78315600000001,-122.401933
2339 clement street,37.7818464,-122.4845121
2238 polk street,37.7974533,-122.4219004
1240 09th avenue,37.7651584,-122.4661957
845 market street box a,37.7839767,-122.4054904
601 mission bay street,37.7707491,-122.3916769
4625 geary boulevard,37.7805171,-122.4690371
424 clay street,37.7951729,-122.4007941
2847 taylor street,37.8089917,-122.4162427
846 geary street,37.786386,-122.4172441
352 turk street,37.7827861,-122.415001
1001 brannan street,37.7695915,-122.4069949
2824 24th street,37.7529931,-122.4085436
4251 a 18th street,37.7606406,-122.4370013
89 king street dock d,37.7799395,-122.3885504
73 cambon drive,37.7177158,-122.4738473
2 new montgomery street,37.7884057,-122.4021162
1563 page street,37.770944,-122.446233
1639 oak street,37.7718663,-122.4466043
1428 polk street,37.7901277,-122.4204676
1419 haight street,37.77000470000001,-122.4457728
2030 union street,37.7976753,-122.4327034
493 03rd street,37.7816299,-122.3958655
704 valencia street,37.7615012,-122.4218329
332 golden gate avenue,37.7817048,-122.4160085
762 divisadero street,37.7767426,-122.4379401
461 jefferson street,37.8075283,-122.4197413
601 stanyan street,37.7698999,-122.4540839
672 stanyan street,37.7697067,-122.453415
1745 taraval street,37.742462,-122.4850448
119 sacramento street,37.794337,-122.397021
1300 battery street,37.8034649,-122.4018208
900 north point street,37.8058305,-122.4230122
450 balboa street,37.7774363,-122.4638185
534 irving street,37.7643268,-122.4637301
201 03rd street 100,37.7850918,-122.4001373
1425 folsom street,37.7722963,-122.4129303
430 broadway,37.7983486,-122.4044549
475 fell street,37.7754412,-122.4258987
639 divisadero street a,37.7755436,-122.4382523
3004 san bruno avenue,37.7238347,-122.4022064
1701 greenwich street,37.79983660000001,-122.4278302
1 ferry building 54,37.7958379,-122.3937801
335 kearny street,37.7913003,-122.4043473
3282 mission street,37.7444458,-122.4210036
222 sansome street,37.79260000000001,-122.4004162
222 sansome street 1st floor,37.79260000000001,-122.4004162
222 sansome street 2nd floor,37.79260000000001,-122.4004162
222 sansome street 37th floor,37.79260000000001,-122.4004162
3352 18th street,37.76209679999999,-122.4184771
2565 03rd street 310,37.7569896,-122.3876869
24 west portal avenue,37.7406414,-122.4663947
651 06th avenue,37.7763208,-122.4642387
pier 40,37.7816903,-122.3866361
2836 franklin street,37.8007158,-122.42591
1 united nations plaza,37.7799364,-122.4147625
3126 16th street,37.7651005,-122.4226438
132 6th street,37.7803673,-122.4082965
135 04th street fc 6,37.7843318,-122.4033663
882 bush street,37.7899861,-122.4117675
2704 mission street,37.7536369,-122.4188108
2425 geary boulevard,37.7826471,-122.4432378
4809 mission street,37.721249,-122.4371179
28 leland avenue,37.7115602,-122.4043067
498 alabama street,37.7631299,-122.4124105
2436 polk street,37.7993524,-122.4222379
301 west portal avenue,37.7377522,-122.4689627
354 clement street,37.7832086,-122.4631994
1760 cesar chavez street j,37.750466,-122.39495
103 horne avenue 212,37.7266498,-122.3656532
3303 mission street,37.7439931,-122.4205898
pier 39 west perimeter,37.8096632,-122.4102547
2500 noriega street,37.7538562,-122.4907045
201 jones street,37.7827846,-122.41288
881 clay street,37.7940331,-122.407615
3242 22nd street,37.755552,-122.4196426
3463 16th street,37.7642045,-122.4300245
1001 market street,37.781975,-122.4102571
3248 18th street,37.762175,-122.415975
1200 mason street,37.79474039999999,-122.4112671
799 battery street,37.7983971,-122.4014614
1 embarcadrero center,37.7946507,-122.3998262
581 hayes street,37.7764293,-122.4259179
3251 20th avenue 250b,37.7277303,-122.4769749
1900 irving street,37.7637208,-122.4785142
3566 20th street,37.7586821,-122.4204424
1963 sutter street,37.785977,-122.4326014
347 presidio avenue,37.7884566,-122.4471931
1096 union street,37.799562,-122.4172828
1512 golden gate avenue,37.7795284,-122.4359816
1430 scott street,37.7830699,-122.4359414
3809 geary boulevard,37.78092,-122.460277
576 union street,37.8006763,-122.4088529
5050 mission street c,37.71762590000001,-122.4403617
5130 mission street,37.7164925,-122.4414378
1150 ocean avenue,37.7238471,-122.45466
2001 market street,37.7683532,-122.4271267
450 rhode island street,37.7644788,-122.4032778
330 clement street,37.7832431,-122.4628456
4826 mission street,37.7209469,-122.4378547
24 wiilie mays place 120,37.7783491,-122.3877002
900 north point street 301,37.8058305,-122.4230122
111 mason street,37.78449860000001,-122.4096135
2299 market street b,37.7640737,-122.4328131
1000 sutter street,37.7884014,-122.4171276
548 green street,37.7998704,-122.4081829
90 charter oak avenue k6,37.7368189,-122.405298
1793 haight street,37.7692507,-122.4515701
1998 union street,37.79766,-122.4320297
579 hayes street,37.7763786,-122.4257994
995 ellis street,37.783487,-122.4224443
414 sutter street,37.78950270000001,-122.4074101
2798 diamond street,37.7346098,-122.4339872
2900 diamond street,37.7334116,-122.4343598
7 warriors way 202,37.76884039999999,-122.3868371
722 market street,37.78744,-122.4041191
1201 plymouth avenue,37.7243363,-122.4566512
99 9th street,37.7764561,-122.414729
2 embarcadero ctr b6,37.79478810000001,-122.3984101
1800 divisadero street,37.7863808,-122.4398453
1524 irving street,37.7638897,-122.4744212
819 valencia street,37.7597582,-122.4212092
1401 6th avenue,37.76219,-122.4631335
1540 ocean street,37.724712,-122.4589103
1830 irving street,37.7637531,-122.477793
5351 geary boulevard,37.7802718,-122.4770895
395 golden gate avenue,37.7813232,-122.4167539
1475 polk street,37.7902276,-122.4209441
6 06th street,37.7819278,-122.4101379
449 powell street 2nd floor,37.788933,-122.4089565
2767 lombard street,37.7983696,-122.4469727
536 mission street,37.7893124,-122.3990296
599 3rd street,37.7804349,-122.3942911
1060 hyde street,37.7908583,-122.4171232
1300 noriega street,37.7543595,-122.4777177
631 larkin street,37.7838331,-122.4179575
1039 ocean avenue,37.7231613,-122.4537788
1650 holloway avenue,37.7224845,-122.478519
3349 mission street,37.7432586,-122.4211318
4097 19th avenue,37.7144568,-122.4703196
mission bay blocks 29 32,37.7706831,-122.3895903
295 b orizaba avenue,37.7141355,-122.4629561
110 hunters point shipyard,37.7265401,-122.3759933
272 o farrell street,37.7864293,-122.409318
3560 18th street,37.7618143,-122.4229679
736 clement street,37.7830781,-122.4672027
621 kearny street,37.7938573,-122.4048598
1039 stockton street,37.795455,-122.408356
377 bay street a,37.8055163,-122.4131286
700 grant avenue,37.7935278,-122.4059861
151 warriors way 102 3,37.76854549999999,-122.3885853
4605 geary boulevard,37.7806493,-122.4687731
1559 franklin street,37.7890581,-122.4240076
2200 jerrold street z,37.7463353,-122.3982449
151 3rd street,37.7858686,-122.400667
1051 taylor street,37.7922277,-122.4127546
2211 mission street,37.761556,-122.4190117
3251 20th avenue 172,37.7270581,-122.4771135
2544 mission street,37.7563025,-122.4193399
345 stockton street,37.7891412,-122.4072161
2195 mission street,37.7620163,-122.4191629
1 ferry building 956,37.7958379,-122.3937801
1551 mission street,37.7733151,-122.4180126
5273 03rd street,37.7295259,-122.3923232
5299 03rd street,37.7294866,-122.3923693
3251 20th avenue 250,37.7277303,-122.4769749
1322 grove street,37.7758912,-122.4383946
1042 polk street,37.7867308,-122.4197597
3 embarcadero center lobby level,37.7948167,-122.397348
181 03rd street,37.7854527,-122.4004457
125 3rd street,37.7860763,-122.4015028
1404 taraval street,37.7430672,-122.4813212
1525 pine street,37.7893899,-122.4208567
66 dorman avenue,37.7396932,-122.4034032
2191 irving street,37.763215,-122.4812246
345 spear street 6th floor,37.7896949,-122.390308
1 market street floor 37,37.7941766,-122.3948205
1 market street floor 4,37.7941766,-122.3948205
188 embarcadero,37.7924096,-122.3918201
300 clay street floor 2,37.795315,-122.3991929
300 clay street,37.795315,-122.3991929
1 market street 10th floor,37.7941766,-122.3948205
215 fremont street floor 2,37.7891425,-122.3947129
215 fremont street floor 3,37.7891425,-122.3947129
215 fremont street floor 4,37.7891425,-122.3947129
215 fremont street floor 8,37.7891425,-122.3947129
444 battery street,37.795486,-122.4001359
121 spear street 3rd floor,37.7921638,-122.3926569
121 spear street 5th floor,37.7921638,-122.3926569
455 south mission bay boulevard,37.7709853,-122.3891182
345 spear street 7th floor,37.7896949,-122.390308
575 florida street fl 1,37.7620539,-122.4107252
651 brannan street,37.7752762,-122.3997421
350 bush street 200,37.7915303,-122.403408
101 horne avenue 1501,37.7270937,-122.3657814
901 taraval street,37.7429102,-122.4758374
1033 irving street,37.7637205,-122.4690813
3701 noriega street a,37.7528602,-122.5035591
1000 bush street,37.789617,-122.4139182
25 grove street 4702,37.7786111,-122.4158333
499 castro street,37.7610496,-122.4347478
3111 24th street,37.7522953,-122.4144851
855 howard street,37.7821015,-122.4037999
135 sunridge drive,37.7749295,-122.4194155
2546 san bruno avenue,37.7294922,-122.4045166
2400 san bruno avenue,37.7322853,-122.4057559
1170 powell street,37.7955507,-122.409672
1221 fell street,37.77383469999999,-122.4383293
509 laguna street,37.7758234,-122.4262799
535 irving street,37.7639971,-122.4636919
474 03rd street,37.78146520000001,-122.3963325
4401 cabrillo street a,37.7732521,-122.5059353
1098 sutter street,37.7882438,-122.4183665
578 cleveland avenue,37.8945376,-122.308821
601 geary street,37.7865071,-122.4132958
1650 holloway avenue c,37.7224845,-122.478519
533 jones street,37.7862791,-122.4133577
5501 california street,37.784161,-122.4765833
800 clement street,37.7829882,-122.4678099
1900 geary boulevard,37.784588,-122.4350898
942 mission street,37.7821501,-122.4078359
598 guerrero street,37.7616968,-122.424146
1815 irving street,37.7634427,-122.4774994
2401 post street,37.7839655,-122.4415263
1 pagoda place,37.7933773,-122.4073616
1192 illinois street,37.7565824,-122.3873367
2253 irving street,37.7630744,-122.4822465
2291 03rd street,37.7606985,-122.3883507
2101 van ness avenue,37.7949229,-122.4235486
2600 bayshore boulevard,37.7088248,-122.4054826
299 ellis,37.7849779,-122.4110092
3801 24th street,37.7515822,-122.4276458
1042 taraval street,37.7431777,-122.4775277
405 mason street,37.7873621,-122.4101028
1320 4th street,37.77152170000001,-122.3914588
425 mission street 105,37.7880758,-122.3984825
99 drumm street,37.7944581,-122.3967898
1040 revere avenue,37.7258936,-122.3797328
1812 clement street,37.7825045,-122.4787614
165 steuart street,37.79258859999999,-122.3921793
4 embarcadero ctr lobby lv,37.7954126,-122.395954
680 08th street ste 170,37.7705756,-122.4050028
18 harlan place,37.7902283,-122.4049942
7 warriors way 206,37.7687962,-122.3869017
431 clement street,37.7827782,-122.4639623
330 05th street,37.7797348,-122.403123
4 mint plaza,37.7830834,-122.4077116
4827 mission street,37.7210486,-122.4373096
2077 hayes street,37.7732219,-122.4505462
501 hayes street,37.7763838,-122.4247376
1395 noriega street,37.7539467,-122.4784563
2299 15th street,37.7655664,-122.4352878
2990 24th street,37.7528206,-122.4117298
4845 mission street,37.720796,-122.4374676
88 hardie place,37.7903976,-122.4034625
678 post street,37.7878601,-122.4130848
681 townsend street,37.7703633,-122.4032115
426 larkin street,37.7818766,-122.4171141
2424 van ness avenue,37.7980002,-122.4236094
1618 noriega street,37.7542048,-122.4812421
708 clement street,37.7830598,-122.4668563
2279 mission street,37.760634,-122.419024
572 castro street,37.7597549,-122.4352017
220 bush street,37.7914104,-122.4012865
775 jackson street,37.79580720000001,-122.4078093
2591 san bruno avenue,37.7290727,-122.4039969
2247 market street,37.7649009,-122.4317092
3853 24th street,37.7514527,-122.4287071
411 columbus avenue,37.79885,-122.408335
582 washington street,37.7956998,-122.4028314
443 clement street,37.7827246,-122.464106
1734 post street,37.7858094,-122.4303341
701 union street,37.8000781,-122.4109501
1398 leavenworth street,37.7938406,-122.4161525
1412 polk street,37.78993570000001,-122.4203008
288 golden gate avenue,37.781927,-122.4153724
808 divisadero street,37.7771297,-122.4380118
810 van ness avenue,37.7832484,-122.4205644
4401 balboa street,37.7751548,-122.5060596
1433 taraval street,37.7426207,-122.4816691
1737 buchanan street,37.7861851,-122.4302014
680 clay street,37.7946079,-122.4044835
219 o farrell street,37.7862056,-122.4084801
1418 haight street,37.7703603,-122.4458232
801 font boulevard,37.7222608,-122.4829776
3625 balboa street e,37.7755128,-122.4978228
5801 geary boulevard,37.7800053,-122.4816843
582 sutter street,37.7892205,-122.4099444
1608 polk street,37.7917276,-122.4208039
524 union street,37.8007624,-122.4081351
1392 09th avenue,37.7623352,-122.466048
154 mcallister street,37.7809234,-122.4146484
1222 noriega street,37.7544518,-122.4770176
2018 clement street,37.782377,-122.481047
455 grant avenue,37.7912579,-122.4058748
2150 lombard street,37.8000325,-122.4371946
24 willie mays place promenade lvl sec 121,37.7783491,-122.3877002
24 willie mays place view level section 319,37.7783491,-122.3877002
648 kearny street,37.7942739,-122.4046276
733 washington street,37.7950328,-122.4060592
5278 mission street,37.7149511,-122.4425001
2201 clement street,37.7819714,-122.4828708
3251 20th avenue 156,37.7280817,-122.4770808
801 22nd street,37.7577596,-122.3894792
960 grant avenue,37.7958566,-122.4065338
5322 geary boulevard,37.7807025,-122.4766515
1975 bryant,37.7621919,-122.4098711
4542 irving street,37.7623986,-122.5068766
2887 bryant street,37.748532,-122.4084883
224 vintage way,38.08854600000001,-122.5534481
528 divisadero street,37.7744995,-122.4374566
1740 buchanan street,37.7861923,-122.4297366
1817 polk street,37.7936327,-122.4214609
407 castro street,37.7623326,-122.4350105
599 skyline boulevard 1 lakeside,37.7093484,-122.4947281
599 skyline boulevard 2 driving range,37.7093891,-122.494668
4077 18th street,37.7608279,-122.4344465
5512 geary boulevard,37.7805825,-122.478699
1468 hyde street,37.7945087,-122.4179019
531 haight street,37.7718849,-122.4309535
550 geary street,37.7870622,-122.412526
45 rose street,37.7735606,-122.4220518
1300 columbus avenue,37.806587,-122.4180126
1625 post street,37.7854516,-122.4288963
653 commercial street,37.7939831,-122.4038752
55 05th street,37.7835179,-122.4068622
801 kearny street,37.7954547,-122.4051554
605 battery street,37.7969217,-122.4009876
3224 22nd street,37.7555185,-122.4194257
937 taraval,37.7428489,-122.4764129
2157 polk street,37.7966876,-122.4221227
1120 4th street,37.77403,-122.3917069
494 haight street,37.7723235,-122.4302372
925 kearny street,37.7965317,-122.405408
1000 howard street,37.7796995,-122.4076586
2373 chestnut,37.799893,-122.4423668
1200 stockton street,37.7968136,-122.4083173
11601 wilshire boulevard 900,37.8042573,-122.1995106
pier space n 111 1a,37.7417363,-122.3842756
404 20th avenue,37.780108,-122.479127
2164 polk,37.7968111,-122.4217291
3450 03rd st 4e,37.7452368,-122.3874789
121 capp street a,37.764715,-122.4184093
1 ferry building plaza,37.7954425,-122.3936136
tff event operations,37.7749295,-122.4194155
2001 union street 107,37.7971842,-122.4324862
622 jackson street,37.7964028,-122.4056895
4039 18th street,37.7608414,-122.4336963
1550 evans avenue,37.7428298,-122.3871504
555 north point street,37.8060079,-122.4165082
1515 fillmore street,37.7835413,-122.4329532
314 church street,37.7658205,-122.4289752
684 king street,37.7702082,-122.40223
496 eddy street,37.783711,-122.4158273
514 minna street,37.7805166,-122.4084162
1420 irving street,37.7639875,-122.473241
2150 irving street,37.7635306,-122.4812334
133 waverly place,37.7946415,-122.4071265
986 market street,37.7826427,-122.4101903
5336 geary boulevard,37.780648,-122.4768129
829 mission street,37.7837081,-122.4048103
2525 16th street,37.7653509,-122.4117476
800 van ness avenue,37.7830678,-122.4205214
3251 20th avenue 250c,37.72807299999999,-122.476737
901 polk street,37.7851244,-122.4197618
1302 22nd street,37.7580003,-122.3947729
120 montgomery street,37.7904347,-122.4021932
275 battery street,37.7939006,-122.4003614
235 church street,37.7669344,-122.428653
348 columbus avenue,37.7984951,-122.4073208
579 columbus avenue,37.7999921,-122.4101145
2859 mission street,37.7513145,-122.4181632
2151 lombard street,37.7995115,-122.4368372
220 montgomery street 144 148,37.7913181,-122.4019503
pier 39 k 106 b,37.7319175,-122.4903999
185 berry street,37.7763066,-122.3916833
1350 07th avenue,37.7632828,-122.4637964
2436 clement street,37.7823034,-122.4855766
3060 fillmore street,37.7978978,-122.4354156
508 valencia street,37.76464929999999,-122.4221182
822 irving street,37.76424190000001,-122.4668148
108 carl street b,37.76591,-122.4503393
1215 4th street,37.7726108,-122.3911611
362 kearny street,37.7916137,-122.4040812
999 california street 19th floor,37.7915187,-122.4101366
999 california street b1 california level,37.7915187,-122.4101366
999 california street lobby,37.7915187,-122.4101366
301 mission street,37.7904876,-122.3959318
18 yerba buena ln,37.7860402,-122.4045132
2901 16th street,37.7649934,-122.4177321
25 maiden ln,37.7882904,-122.4040474
928 geary street,37.7862531,-122.4185767
1298 12th avenue,37.7640659,-122.4693798
3324 steiner street,37.800106,-122.4375015
3263 mission street,37.7445438,-122.4203001
800 avenue h 5,37.8264139,-122.370084
1 avenue of the palms a,37.8172234,-122.370686
3266 24th street,37.7523967,-122.4178135
3248 22nd street,37.75554229999999,-122.4197324
237 fillmore street,37.7717704,-122.4305996
917 folsom street,37.7798741,-122.4036734
2221 clement street,37.7818858,-122.4831877
900 bush street,37.7898872,-122.4126587
1737 post street 355,37.7852865,-122.4304236
2537 24th street,37.7529519,-122.4049815
2462 san bruno avenue,37.7308112,-122.4051585
1215 stockton street,37.7970832,-122.4086514
633 battery street,37.7971457,-122.4011537
633 battery,37.7971457,-122.4011537
1688 bryant street,37.7658165,-122.4108485
3301 buchanan street,37.8004953,-122.432995
581 valencia street,37.7636755,-122.4214783
1300 9th avenue,37.7638557,-122.4661581
152 kearny street,37.7896384,-122.4036556
170 o farrell street,37.787006,-122.4072604
2014 market street,37.7693013,-122.4277063
2300 16th street,37.766469,-122.4095835
74 new montgomery street,37.78761739999999,-122.4011537
865 market street 210,37.7839469,-122.4071583
1380 09th avenue,37.7626065,-122.4660222
279 columbus avenue,37.7976516,-122.4067213
925 larkin street,37.7864656,-122.4183889
hunters point building 110 shipyard,37.7277164,-122.3931774
1875 geary boulevard,37.7838926,-122.4342051
7 hagiwara drive,37.783512,-122.4406782
3340 steiner,37.80024119999999,-122.4375457
3259 mission street,37.74457690000001,-122.4201142
1700 ocean avenue,37.72492889999999,-122.4600983
1594 market street,37.7744431,-122.4206579
450 beach street,37.8070564,-122.4159997
3198 24th street,37.7524823,-122.416134
5524 geary boulevard,37.780708,-122.4787841
1355 market street,37.7769754,-122.4164009
366 golden gate avenue,37.7818371,-122.4166946
5158 geary boulevard,37.780851,-122.4749476
1581 webster street 150,37.7849195,-122.4318719
1826 buchanan street b,37.7870026,-122.4298256
5249 mission street,37.7146377,-122.4422937
1196 folsom street,37.7752548,-122.4100025
1155 4th street,37.7732472,-122.3909751
2213 fillmore street,37.79008640000001,-122.4343235
235 montgomery street,37.7910211,-122.4027778
301 howard street,37.7895408,-122.394228
303 02nd street,37.7856757,-122.3958433
303 2nd street,37.7856757,-122.3958433
525 market street,37.7906639,-122.3991275
1155 04th street,37.7732472,-122.3909751
2499 folsom street,37.7574554,-122.414318
2200 bryant street,37.7590589,-122.4100702
63 ellis street,37.7854445,-122.407194
2404 california street,37.7889994,-122.4342116
2700 16th street,37.7656331,-122.4133682
611 post street,37.7877291,-122.4120039
1919 ocean avenue,37.7252488,-122.4628456
411 valencia street,37.7663153,-122.4218344
685 market street 120,37.7877269,-122.4026141
730 howard street,37.784482,-122.4018814
pier the embarcadero pier,37.778416,-122.3863482
1 warriors way level 200 south,37.7680183,-122.3878772
401 a judah street,37.7619327,-122.4664102
1335 fulton street 101,37.7765382,-122.4388301
166 west portal avenue,37.7392971,-122.4679897
768 jackson street,37.7960681,-122.4077641
2401 mission street,37.7585168,-122.4188742
50 post street,37.7895121,-122.4035876
2545 24th street,37.7529189,-122.4051627
1401 polk street,37.789742,-122.4207557
1401 stockton street,37.7986858,-122.4090436
500 post street,37.7881998,-122.4101843
3177 16th street,37.7647034,-122.423609
2140 clement street,37.7823146,-122.4825417
550 kearny street lobby,37.7933056,-122.404373
298 king street,37.7766391,-122.3940918
3736 fallon road 422,37.7976844,-122.4135969
5121 geary boulevard,37.7803196,-122.4744305
1455 market st 3a,37.7752143,-122.4175259
3321 20th street,37.7587457,-122.4152201
3409 geary boulevard,37.78114559999999,-122.4555661
1838 union street,37.7979908,-122.4296519
701 03rd street,37.7788012,-122.3923165
229 columbus avenue,37.79734390000001,-122.4061484
1906 market street,37.7706016,-122.4253668
1355 taraval street,37.7427095,-122.4809373
1901 hayes street,37.7735782,-122.4477965
1356 polk street,37.7895431,-122.4202956
1051 market street,37.781266,-122.4112304
380 bush street 6,37.7909262,-122.4038582
5800 3rd street c1001,37.7254277,-122.3945778
1684 bryant street,37.7658589,-122.4108338
101 hyde street k21,37.7818595,-122.4158888
2809 24th street,37.7526995,-122.4084334
4036 balboa street,37.7757428,-122.5022525
908 clement street,37.7828772,-122.4689935
1 warriors way level 600 south,37.7680183,-122.3878772
1 warriors way level 400 north,37.7680183,-122.3878772
252 divisadero street,37.771477,-122.4369169
775 frederick street,37.7657275,-122.4572643
1503 15th street,37.7665669,-122.4179241
5937 geary boulevard,37.7799615,-122.4833111
3741 geary boulevard,37.7809632,-122.459617
400 haight street,37.7724663,-122.4289801
203 folsom street,37.7884547,-122.3921754
3380 19th street,37.760411,-122.4188025
607 geary street,37.78654969999999,-122.4133225
101 cyril magnin street,37.7856718,-122.4089284
1426 fillmore street a,37.7828241,-122.4323695
1639 irving street,37.763452,-122.47574
1541 taraval street,37.7424988,-122.4828385
184 o farrell street,37.7866908,-122.4077578
645 clay street,37.79442969999999,-122.4038752
1713 taraval street,37.742473,-122.4846469
2048 taraval street,37.7426772,-122.4882832
3528 balboa street,37.7759183,-122.496838
1060 key avenue,37.71952,-122.3963744
1195 hudson avenue,37.7323863,-122.3822563
3 embarcadero center,37.7948167,-122.397348
1080 howard street,37.7784654,-122.4090386
750 clement street,37.7829361,-122.4674567
1581 webster street 190,37.7850535,-122.4315575
5723 geary boulevard,37.7800176,-122.4809072
2011 mission street,37.7647695,-122.4194823
3499 16th street,37.764225,-122.4306961
1545 fillmore street,37.78384760000001,-122.4330165
615 cortland avenue,37.739149,-122.4156012
1358 09th avenue,37.7630248,-122.4661206
845 market st ste fe 10,37.7839767,-122.4054904
3901 18th street,37.7610309,-122.4307602
711 geary street,37.7863564,-122.4150949
32 03rd street,37.7870289,-122.4032524
408 irving street,37.7643806,-122.4623468
6909 geary boulevard,37.7794514,-122.4935563
2870 kaiser drive 408,37.7749295,-122.4194155
1398 09th avenue,37.7623741,-122.4660355
393 07th avenue,37.7813802,-122.4656318
7001 geary boulevard,37.7794237,-122.4945511
1424 lombard street,37.8014999,-122.4252168
601 mission bay blvd n,37.7707779,-122.3914399
198 valencia street,37.7700643,-122.4225918
1040 polk street,37.7867162,-122.4196757
1615 mcallister street,37.7776586,-122.4387007
3251 20th avenue 220,37.72801279999999,-122.4771869
584 washington street,37.7957301,-122.4029252
1737 post street 380,37.7851371,-122.4307827
237 ellis street,37.7850971,-122.4101791
602 eddy street,37.7833847,-122.4178297
2125 polk street,37.7963492,-122.4220752
2871 24th street,37.752604,-122.4096277
1000 cole street,37.7647667,-122.4494884
2325 pine street,37.7877784,-122.4340945
3898 24th street,37.751759,-122.429516
500 hayes street,37.7767753,-122.4247974
2097 mission street,37.7637017,-122.4192514
1145 market street,37.7792951,-122.4131656
3781 mission street,37.7362313,-122.4241937
100 01st street 165,37.7894101,-122.3978054
101 montgomery street,37.790395,-122.4026023
2425 03rd street,37.7904446,-122.4025189
2840 mission street,37.7514207,-122.4185656
1598 sanchez street,37.7436575,-122.4290966
300 california street 150,37.79329140000001,-122.4003867
2804 24th street,37.7530033,-122.4084625
3839 mission street,37.7355485,-122.4244058
1905 mission street,37.7665106,-122.4195391
3817 noriega street,37.7527914,-122.5047164
3643 balboa street,37.7755035,-122.4981544
607 divisadero street,37.775234,-122.4380546
2962 24th street,37.7529153,-122.4114313
1565 kirkwood avenue,37.7374668,-122.3892492
3249 24th street,37.7522148,-122.417269
4 embarcadero center street level,37.7954126,-122.395954
2 koret way,37.7625077,-122.4591525
beach chalet soccer field parking lot,37.7126717,-122.4278788
956 grant avenue,37.7958128,-122.4064874
1 united nations place,37.7664135,-122.4774023
2045 mckinnon avenue,37.740245,-122.3977905
611 larkin street,37.7835059,-122.4178577
1821 haight street,37.7691551,-122.4523413
1416 powell street,37.79786410000001,-122.4101339
1005 guerrero street,37.7549358,-122.4229091
731 irving street,37.7638354,-122.4658087
private location,37.7749295,-122.4194155
601 larkin street,37.7834139,-122.4177254
698 post street,37.787842,-122.4131775
4068 18th street,37.7611564,-122.4342604
607 larkin street,37.78347910000001,-122.4178567
134 golden gate avenue,37.7822363,-122.4129685
5251 3rd street,37.7297859,-122.3921778
550 powell street,37.7899851,-122.4085495
434 beach street,37.8073377,-122.4162027
646 kearny street,37.79422570000001,-122.404539
511 irving street,37.76404,-122.4633321
1501 folsom street,37.7715986,-122.4140297
3416 19th street,37.7603952,-122.4197125
811 ulloa street,37.74056780000001,-122.4654549
400 waller street,37.7713355,-122.4304886
22 franklin street,37.774757,-122.4206092
1138 sutter street,37.7880597,-122.4192118
498 sanchez street,37.7612879,-122.4307831
1426 18th street,37.7626716,-122.3971745
752 columbus avenue,37.8017321,-122.4120152
133 clement street,37.782955,-122.4607023
350 seneca avenue,37.7217512,-122.444866
1397 revere avenue,37.729397,-122.3864373
65 leland avenue,37.7115465,-122.4052913
16 west portal avenue,37.7408048,-122.4663173
781 mission street,37.7848688,-122.4034659
2348 polk street,37.7985374,-122.4221052
1241 vicente street,37.7388968,-122.4804572
568 sacramento street,37.7940121,-122.4025639
3189 16th street,37.7646616,-122.4238241
900 folsom street a,37.7800732,-122.4040618
2421 clement street,37.7818756,-122.4852958
1290 sutter street,37.787831,-122.4214676
982 market street,37.7827039,-122.4103578
871 sutter street,37.7882374,-122.4146111
1355 market street 100 b,37.7769754,-122.4164009
3108 fillmore street,37.7984416,-122.4355986
1440 cary avenue,37.5706244,-122.3096135
225 clement street,37.78285320000001,-122.4616957
2200 jerrold avenue n,37.7463353,-122.3982449
450 irving street a,37.76436229999999,-122.4628898
836 clement street,37.783042,-122.4683295
1001 south van ness avenue,37.7570514,-122.4164197
5800 03rd street 1004,37.7250373,-122.3951234
1400 sutter street,37.787498,-122.4236772
2862 24th street,37.7529217,-122.4096216
337 jones street,37.7844069,-122.4129906
528 laguna street,37.7759401,-122.4260185
950 market street,37.7832206,-122.4094515
3417 18th street,37.7615934,-122.4200026
1125 mariposa street,37.76372629999999,-122.3952023
2517 san bruno avenue,37.7300738,-122.4044062
521 cortland avenue,37.7391528,-122.4160424
1400 stockton street,37.7986983,-122.4087054
8311 country club ln,37.7314757,-122.4951431
2348 mission street,37.7594742,-122.4193209
752 grant avenue,37.7941724,-122.4061811
393 west portal avenue,37.7365752,-122.4703196
1131 stockton street,37.7962296,-122.4084831
330 ritch street,37.7790885,-122.3943829
200 23rd avenue,37.7838693,-122.4826197
1249 stockton street,37.7972305,-122.4086888
1253 09th avenue,37.7649409,-122.46666
3836 geary boulevard,37.7813701,-122.4606779
555 20th street 1,37.7605789,-122.3855883
75 o farrell street,37.7865938,-122.4059587
1660 geary boulevard,37.78497249999999,-122.4306804
28 cyril magnin street,37.7848965,-122.4081896
501 broadway street,37.797788,-122.405695
90 charter oak avenue 16,37.736888,-122.4050063
309 06th avenue,37.78267779999999,-122.4646294
3608 balboa street,37.7759842,-122.4976484
1555 mariposa street,37.7636148,-122.3991989
69 bluxome street,37.7764653,-122.3971375
483 sacramento street,37.7939677,-122.4009425
741 diamond street,37.7513438,-122.4361294
600 03rd street,37.7798199,-122.3943996
1801 clement street,37.7821856,-122.4786686
890 taraval street,37.7433205,-122.4754935
974 valencia street,37.7573817,-122.4213624
2471 mission street,37.75756,-122.4187315
2101 lombard street,37.7996583,-122.4362242
1824 irving street,37.7638176,-122.4777046
1354 harrison street,37.77217170000001,-122.410901
2347 03rd street,37.7595199,-122.3881765
198 gough street,37.7749306,-122.4224081
2065 polk street,37.7957619,-122.4219946
100 spear street,37.7922008,-122.394051
490 bryant street,37.7817267,-122.3957732
530 valencia street,37.7643866,-122.4222787
2295 market street,37.76443760000001,-122.4324134
101 hyde street k25,37.7818595,-122.4158888
2426 san bruno avenue,37.7317147,-122.4057338
4501 geary boulevard,37.7806908,-122.4676882
4766 mission street,37.7218304,-122.4371705
12 persia avenue,37.7228272,-122.4356931
2101 geneva avenue,37.7088017,-122.420694
5672 mission street,37.7105031,-122.4485263
3214 folsom street,37.7469048,-122.4137818
324 south van ness avenue,37.7679135,-122.4180496
655 larkin street,37.7840059,-122.4179186
1439 taraval street,37.7425716,-122.4817654
587 post street,37.7877891,-122.4113817
823 clement street,37.7825892,-122.4681084
2736 20th street,37.7594028,-122.4087544
100 pine street 102,37.7927186,-122.3990642
1508 taraval street,37.7429869,-122.4824415
55 stevenson street,37.7895679,-122.3996021
1351 church street,37.7492084,-122.4269718
1111 taraval street,37.7428082,-122.4782025
2675 ocean avenue,37.7319221,-122.4743659
535 scott street bldg,37.774779,-122.4363064
3801 03rd street,37.7415154,-122.3873461
1001 potrero avenue,37.7562302,-122.4044692
1501 ocean avenue,37.7241333,-122.4583869
200 king street,37.7784204,-122.3926361
759 columbus avenue,37.8016343,-122.4123591
92 02nd street,37.78800640000001,-122.4000696
1750 cesar chavez street e,37.75088969999999,-122.3943622
2190 union street,37.7972661,-122.4352658
580 green street,37.7996741,-122.4088016
960 cole street,37.7650645,-122.4494884
694 valencia street,37.7618743,-122.4217734
1101 potrero avenue,37.754204,-122.4062706
1823 clement street,37.7821409,-122.4788744
520 columbus avenue,37.799857,-122.4093426
1779 lombard street,37.8003365,-122.4306516
1315 powell street,37.7966805,-122.4103247
570 04th street,37.7785416,-122.3971931
2209 polk street,37.7971197,-122.4222379
170 ofarrell street,37.787006,-122.4072604
3673 sacramento street,37.7872818,-122.4531153
900 grant avenue,37.795286,-122.4063592
1398 haight street,37.77041860000001,-122.4451535
1376 09th avenue,37.762678,-122.4659414
555 nichols road,37.7195704,-122.3875795
1 warriors way event level east,37.7680183,-122.3878772
333 battery street,37.79467289999999,-122.400844
5601 geary boulevard,37.7800389,-122.4795839
2565 03rd street 202,37.7569896,-122.3876869
1030 polk street,37.7865196,-122.4196931
710 montgomery street,37.7958011,-122.4031672
1 marketplace ferry building 36,37.7954425,-122.3936136
4995 mission street,37.7184901,-122.4391818
4416 18th street,37.7608148,-122.4387262
403 eddy street,37.7836125,-122.4144274
3991 24th street,37.7513197,-122.4315852
517 clement street,37.7826936,-122.4647805
2317 chestnut street,37.7999931,-122.4414351
3659 buchanan street,37.8038341,-122.4336579
3452 mission street,37.7415319,-122.4227965
301 a executive park boulevard,37.7115034,-122.3917958
51 jefferson street o,37.8084753,-122.4130905
1355 market street 10,37.7769754,-122.4164009
2078 hayes street,37.7735599,-122.4506898
3092 16th street,37.7651456,-122.4216765
1409 sutter street,37.787003,-122.4238528
5820 mission street,37.7093798,-122.4519653
1099 tennessee street,37.7580212,-122.3891412
2681 21st street,37.7574875,-122.4085181
2299 chestnut street,37.8001092,-122.4410369
2139 lombard street fl 1,37.7995287,-122.4366603
1503 north point street,37.8040673,-122.4321742
1400 market street,37.7764523,-122.4180787
300 precita avenue,37.7466774,-122.4133609
500 brannan street,37.7783017,-122.3968833
1243 09th avenue,37.7651397,-122.466649
419 o farrell street,37.7858028,-122.4118402
3868 24th street,37.7517857,-122.4290069
2034 mission street,37.76443709999999,-122.4198576
1581 webster street 235,37.7851005,-122.4320079
2931 16th street,37.7649435,-122.4183001
2020 jerrold avenue,37.7439372,-122.3975379
1375 09th avenue,37.7626856,-122.4664091
845 market street 4,37.7844932,-122.4064523
2660 mason street,37.8081427,-122.4138785
399 geary street a,37.7869427,-122.4095967
1581 webster street 175,37.7849544,-122.4317274
3251 20th avenue 250k,37.72774709999999,-122.4769664
756 grant avenue,37.7942158,-122.4062082
1799 mcallister street,37.7772667,-122.4414532
315 05th street,37.7800982,-122.402901
1 market plaza pl24,37.7941766,-122.3948205
1726 buchanan street,37.7860207,-122.4297715
2323 van ness avenue,37.7971925,-122.4241182
2232 bush street,37.7872091,-122.4341518
180 spear street,37.7907734,-122.3917608
398 dolores street,37.7631333,-122.426525
1256 7th avenue,37.76487120000001,-122.4641034
975 bush street,37.7893364,-122.4132527
720 market street,37.78754199999999,-122.4040705
1800 mcallister street,37.77748020000001,-122.4419533
1100 fillmore street,37.7798545,-122.4317422
1201 ocean avenue,37.7234978,-122.4554879
235 front street,37.7938944,-122.3991307
255 winston drive,37.7263623,-122.4762351
2805 mission street,37.7520966,-122.4182507
441 sutter street,37.7890678,-122.4076365
5411 03rd street,37.728089,-122.392698
5454 mission street,37.7131425,-122.4445785
609 market street,37.78886869999999,-122.4013963
1390 wallace street,37.7254178,-122.3868907
2230 jerrold avenue bldg,37.74540289999999,-122.3999147
3465 19th street,37.7599111,-122.4207472
701 valencia street,37.7615093,-122.421222
900 16th street,37.7666664,-122.3954851
88 2nd street street,37.7880907,-122.4002616
451 dumbarton avenue,37.4761347,-122.2084794
1000 larkin street,37.7873051,-122.4182117
1305 castro street,37.7510547,-122.4337981
576 haight street,37.7721374,-122.4317056
300 mission street 102,37.79130019999999,-122.3964012
465 california street,37.7927969,-122.4022626
90 charter oak avenue k11,37.736888,-122.4050063
672 geary street,37.78670700000001,-122.4143269
174 valencia street,37.7703467,-122.4227182
1365 fillmore street,37.7819727,-122.4327015
465 california street 1600,37.7924303,-122.4022359
private events,37.7749295,-122.4194155
130 townsend street,37.780292,-122.3914768
699 avenue of the palms,37.8226313,-122.3757477
3750 geary boulevard,37.7814532,-122.4598381
3915 24th street bldg,37.75142090000001,-122.4300687
928 stockton street,37.7944797,-122.4078437
2323 polk street,37.7981612,-122.4224791
198 guerrero street,37.7681355,-122.424627
1797 haight street,37.7692929,-122.4517192
4448 mission street,37.7265757,-122.4337604
3226 mission street,37.7451375,-122.4205013
101 hyde street k20,37.7818595,-122.4158888
2845 mission street,37.7515345,-122.4181967
2565 03rd street 308,37.7570058,-122.3877209
2400 harrison street,37.758894,-122.412746
2435 clement street,37.7817832,-122.4855279
302 valencia street,37.7679257,-122.4224335
839 irving street,37.7638477,-122.4670511
881 post street,37.78712489999999,-122.4163123
415 de haro st 105,37.7647095,-122.4014464
1139 taraval street,37.74279629999999,-122.4785801
700 terry a francois boulevard,37.7681315,-122.3864431
1085 sutter street,37.7878642,-122.418238
385 taylor street,37.7857302,-122.4114645
2550 san bruno avenue,37.7293489,-122.4045833
1548 ocean avenue,37.7246695,-122.459042
2045 irving street,37.7632685,-122.4801053
149 06th street,37.7804855,-122.4078924
755 portola drive,37.74378189999999,-122.453689
100 06th street,37.7807476,-122.4087628
640 terry a francois boulevard,37.76799200000001,-122.3875689
114 channel street,37.7747024,-122.3914138
144 leland avenue,37.7124026,-122.4062648
2234 mission street,37.7611847,-122.4196275
2434 mission street,37.7579937,-122.4193377
2366 mission street 102,37.7591452,-122.4194229
3100 16th street,37.7650203,-122.4222172
983 valencia street,37.7572426,-122.4210072
1050 york street,37.7552502,-122.4087664
817 terry francois boulevard,37.7655177,-122.3865434
2738 mission street,37.753271,-122.418862
2323 mission street,37.7598456,-122.4189341
3255 folsom street,37.74587,-122.4131934
28 waverly place,37.7937438,-122.4066208
3400 yale way,37.7257107,-122.4170805
800 cortland avenue,37.738695,-122.414467
350 mission street fl 1,37.7907691,-122.3965851
100 california street 103,37.793949,-122.3980619
240 kearny street,37.7903917,-122.4037873
3130 fillmore street,37.79859039999999,-122.4355986
51 yerba buena lane,37.785565,-122.40426
901 valencia street,37.7583991,-122.4210941
3914 judah street,37.7606918,-122.5040792
115 cyril magnin street,37.7856591,-122.4090319
4406 california street,37.7851838,-122.46488
36 05th street,37.7833508,-122.4075934
3953 geary boulevard,37.7806051,-122.4618062
1469 18th street,37.7624,-122.3972913
3251 20th avenue 159,37.7278194,-122.4767225
32 06th street,37.7815651,-122.4098371
1247 polk street,37.788457,-122.4205124
139 steuart street,37.79289,-122.3924135
1605 polk street,37.7916561,-122.4210849
312 08th avenue,37.7825472,-122.4664167
332 clement street,37.78321589999999,-122.462934
411 ellis street,37.7847176,-122.41305
31 cambon drive,37.7180734,-122.4742681
428 11th,37.769779,-122.4120171
601 mission bay north boulevard,37.7707779,-122.3914399
760 2nd street,37.7798453,-122.3902228
493 pine street,37.7916392,-122.4039374
353 columbus avenue,37.7983728,-122.4077613
301 south van ness avenue,37.7682636,-122.4174578
842 geary street,37.7863827,-122.4171977
451 gough street,37.7774909,-122.4233003
475 06th street k12,37.7763724,-122.4027509
3723 mission street,37.7368941,-122.4239966
599 monterey boulevard,37.7313419,-122.4487364
510 stevenson street,37.7815509,-122.4101336
1934 ocean avenue,37.72584579999999,-122.4632992
388 potrero avenue,37.7647572,-122.4077029
280 golden gate avenue,37.7819011,-122.4152693
747 howard street,37.7841638,-122.4014208
800 howard street,37.7829872,-122.4033752
2015 greenwich street,37.7990499,-122.43305
140 new montgomery street,37.7867018,-122.4001359
3605 balboa street,37.7755016,-122.4975382
1018 taraval street,37.743146,-122.4772501
432 sutter street,37.7895966,-122.4075812
1332 wayne avenue,37.8029006,-122.2529702
276 05th street,37.7804277,-122.4038582
544 clement street,37.7831729,-122.4652452
2200 jerrold avenue,37.7463353,-122.3982449
2680 22nd street,37.7562853,-122.408433
2823 mission street,37.7518664,-122.4182826
4689 mission street,37.7232515,-122.4356262
39 fell street,37.7763277,-122.4185656
2055 union street,37.7971221,-122.4330983
1581 webster street 217,37.7850075,-122.4317398
401 balboa street,37.7771354,-122.4631334
525 05th street,37.7777275,-122.3997819
203 serrano drive,37.7194908,-122.4786656
2040 ocean avenue,37.7266179,-122.4649905
2056 polk street,37.7957922,-122.421553
859 o farrell street,37.7848031,-122.4188416
1116 polk street,37.7871331,-122.4197953
pier fishermans wharf pier,37.80867300000001,-122.409821
626 broadway street,37.7979364,-122.4075682
2666 ocean avenue,37.732408,-122.4742996
300 de haro street 330,37.7657768,-122.402083
4627 geary boulevard,37.7806327,-122.4691213
551 haight street,37.7718979,-122.4313407
41 franklin street,37.7748092,-122.4210409
1968 lombard street,37.8003412,-122.4339336
1737 post street 375,37.7852719,-122.4291175
3258 scott street,37.8000314,-122.4408734
3251 20th avenue 250j,37.7277201,-122.4768509
518 haight street,37.7721783,-122.430842
1515 polk street,37.7908841,-122.4209453
475 06th street k 8,37.7749295,-122.4194155
3420 geary boulevard,37.7815764,-122.4560706
5338 geary boulevard,37.7807307,-122.4768569
535 octavia street,37.7772013,-122.4250075
2343 3rd street 100,37.7596427,-122.3881812
499 douglass street,37.7555735,-122.4387557
3459 mission street,37.7414449,-122.4223374
55 stockton street,37.7863267,-122.4066852
1975 bryant street,37.7621919,-122.4098711
1000 03rd street a,37.7755726,-122.3903157
659 townsend street,37.7706482,-122.4027689
2339 noriega street,37.7535082,-122.4889359
811 stockton street,37.7933411,-122.4079738
1216 stockton street,37.797036,-122.4082973
716 kearny street,37.7948026,-122.4046516
2701 20th street,37.7591124,-122.408079
652 pacific avenue,37.7970487,-122.4065651
601 broadway,37.7976694,-122.4071211
1247 stockton street,37.797308,-122.408814
188 spear street 1200,37.7912872,-122.3929265
1107 stockton street,37.79597880000001,-122.4085215
1054 taraval street,37.74310090000001,-122.47775
393 bay street,37.8054963,-122.4134439
4499 17th street,37.7617511,-122.4452288
1125 stockton street,37.7961667,-122.4086056
5641 geary boulevard,37.7800058,-122.4800963
1002 potrero avenue,37.75596790000001,-122.4068843
3200 fillmore street,37.7991369,-122.4356999
pier 45 shed b space 1a,37.80968,-122.4174783
121 spear street b08,37.7921638,-122.3926569
466 haight street,37.772374,-122.4298475
3052 16th street,37.7651397,-122.4207977
330 gough street,37.7765222,-122.4228064
61 division street,37.7696906,-122.4035175
3347 fillmore street,37.8004866,-122.4365043
1534 california street,37.7908954,-122.4197345
601 18th street,37.762941,-122.3889756
28 west portal avenue,37.7406541,-122.4663836
1299 sanchez,37.7485094,-122.4291455
3821 24th street,37.7515658,-122.4280044
1551 dolores street,37.744568,-122.4241403
231 franklin street,37.8060888,-122.4275737
580 bush street 101,37.7906185,-122.4067272
845 market street fe9,37.7839767,-122.4054904
1165 powell street,37.795535,-122.4100353
4601 geary boulevard,37.78066099999999,-122.4687255
1325 noriega street,37.7539357,-122.4780573
1500 hyde street,37.7947656,-122.4180347
475 06th street k6,37.7763724,-122.4027509
1924 irving street,37.7637451,-122.4787548
2001 fillmore street,,
3251 pierce street,37.8001261,-122.4397294
1245 noriega street,37.7540471,-122.4773131
2444 noriega street,37.7538972,-122.4901186
1548 stockton street,37.8001362,-122.4089198
561 columbus avenue,37.7999592,-122.4100156
1462 grant avenue,37.8004752,-122.4073931
4787 mission street,37.7216986,-122.4366824
123 02nd street,37.7877487,-122.3992165
1 warriors way level 600 north west,37.7680183,-122.3878772
1 warriors way event level north west,37.7680183,-122.3878772
388 market street 106,37.7922841,-122.3979603
200 06th avenue,37.7845918,-122.4644438
2142 irving street,37.7635484,-122.481086
2399 van ness avenue,37.7974813,-122.4240285
1030 hyde street,37.7905176,-122.4170789
189 06th avenue,37.7852405,-122.4647832
4000 24th street,37.7515582,-122.4321395
903 cortland avenue,37.7390843,-122.4138424
1940 taraval street,37.7427895,-122.4871565
165 o farrell street 5th 6th floor,37.7862462,-122.407371
100 01st street 110,37.78933809999999,-122.3972539
711 b market street,37.7870517,-122.4037935
1566 carroll avenue,37.7247626,-122.3925584
1314 ocean avenue,37.7242515,-122.4567817
734 la playa street,37.77461960000001,-122.51002
8 valencia street,37.7719893,-122.4227389
6127 geary boulevard,37.779763,-122.4852398
1500 ocean avenue,37.7245909,-122.4584375
4791 mission street,37.7217225,-122.436811
2545 ocean avenue,37.73135,-122.4730503
1701 octavia street,37.7879802,-122.4271488
1500 owens street 100,37.7688044,-122.395621
733 taraval street,37.7429132,-122.4741824
2 mari off the grid locations c370,37.794561,-122.4205446
1919 irving street,37.7633731,-122.4785569
605 kearny street,37.7937225,-122.404862
202 clement street,37.7832454,-122.4614296
1740 church street,37.7430758,-122.4269145
2966 mission street,37.7495134,-122.4184395
3132 vicente street,37.7384072,-122.5008145
1033 taraval street,37.7427266,-122.4773781
5145 geary boulevard,37.7802836,-122.4748034
298 pacific avenue,37.7978382,-122.4007776
2127 polk street,37.7963931,-122.4220845
1668 haight street,37.7699331,-122.4497537
1737 post street 337,37.784985,-122.4310234
330 o farrell street,37.7862516,-122.4102995
665 townsend street,37.7705601,-122.4028132
75 laguna street,37.77150839999999,-122.4255946
2922 diamond street,37.733182,-122.434458
165 o farrell street 2nd 3rd floor,37.7862462,-122.407371
165 o farrell street 1st floor,37.7862462,-122.407371
1501 sloat boulevard a,37.7338675,-122.489378
1900 market street,37.7707222,-122.4253218
1031 ocean avenue,37.7231141,-122.4536903
71 3rd street,37.7866924,-122.4023063
1760 cesar chavez street f,37.7504953,-122.3948735
1538 fillmore street,37.7838889,-122.432524
1343 powell street,37.7969894,-122.4104611
1737 post street 370,37.7852719,-122.4291175
692 geary street,37.7866986,-122.4145938
2875 18th street,37.7616252,-122.4108486
504 broadway street,37.7981252,-122.4056753
1177 california street,37.7913257,-122.4136195
205 oak street,37.7748399,-122.4229511
682 haight street,37.771928,-122.4334751
2200 jerrold avenue c,37.7456748,-122.3990296
785 sunnydale avenue,37.7096845,-122.4094729
3215 mission street,37.7452485,-122.4198377
4001 judah street,37.7602791,-122.5050242
2250 keith street,37.7270477,-122.3913722
790 valencia street,37.7603068,-122.421664
422 larkin street,37.7818216,-122.4171258
2144 chestnut street,37.8007307,-122.4387227
800 south van ness avenue,37.7602414,-122.4173347
790 silver avenue,37.728896,-122.4197155
3385 mission street,37.7423742,-122.421707
508 castro street,37.7606205,-122.4351561
1865 post street,37.7850659,-122.4324012
101 california street,37.7933407,-122.3974131
7000 geary boulevard,37.7799073,-122.4945511
550 sutter street,37.7894294,-122.4095652
1356 elderberry drive,37.7749295,-122.4194155
1140 ocean avenue,37.7235986,-122.4539259
3180 16th street,37.7649395,-122.4236467
501 o farrell street,37.7856451,-122.4132122
658 vallejo street,37.7987841,-122.4085814
816 folsom street,37.7819959,-122.4016405
900 north point street b201a,37.8058305,-122.4230122
417 stockton street,37.7897952,-122.4075384
4055 irving street,37.7623709,-122.5016052
2032 union street,37.7976211,-122.432887
2298 fillmore street,37.7906203,-122.4339111
291 03rd avenue,37.7834186,-122.4614303
2150 union street,37.7973082,-122.4347082
4919 3rd street,37.7336242,-122.390858
57 horne street,37.727142,-122.3658777
4007 24th street,37.7513069,-122.4321769
2763 san bruno avenue,37.7268704,-122.4030711
3519 california street,37.7863507,-122.4518698
50 mason street,37.7841089,-122.4090471
53 stevenson street,37.7897057,-122.3995618
969 sutter street,37.78813299999999,-122.4162759
69 cambon drive,37.7177576,-122.4738611
3755 noriega street,37.7528277,-122.5041802
1705 haight street,37.769372,-122.4508822
1 warriors way level 200 south west,37.7680183,-122.3878772
1457 18th street,37.7623871,-122.3971394
425 a hayes street,37.7765924,-122.4234546
3324 24th street,37.7523661,-122.4191177
3440 balboa street,37.7759901,-122.4959308
939 clement street,37.7824781,-122.4694351
55 cyril magnin street,37.7849258,-122.4089419
50 3rd street,37.7865871,-122.4030965
1823 divisadero street,37.7864526,-122.4403983
1201 09th avenue,37.7657116,-122.4666047
111 cambon drive,37.71729029999999,-122.4735492
1399 18th street,37.7624723,-122.396384
1379 4th street,37.77089520000001,-122.3903003
555 taraval street,37.74292930000001,-122.4722396
1600 hayes street,37.7745782,-122.4429997
673 geary street,37.7864045,-122.4143623
4150 18th street,37.7609799,-122.4359082
236 clement street,37.7833469,-122.4617841
2 embarcadero center,37.79478810000001,-122.3984101
488 haight street,37.7723122,-122.4302385
550 market street,37.7899072,-122.4009113
1 ferry building na50,37.7954425,-122.3936136
6101 california street,37.7838487,-122.4830254
708 post street,37.7878241,-122.4137096
2852 diamond street,37.7338676,-122.4342404
3254 23rd street,37.7539985,-122.4176618
1509 sloat boulevard,37.7335825,-122.4897112
3251 20th avenue p182,37.7277303,-122.4769749
919 cole street,37.7654794,-122.4501961
625 8th street b1,37.7712682,-122.4051406
121 spear street,37.7921638,-122.3926569
1400 mission street 130,37.775282,-122.416193
773 market street,37.7859681,-122.4050049
2080 chestnut street,37.800859,-122.4378989
2800 leavenworth street a7,37.8077235,-122.4188893
1 warriors way level 500 north,37.7680183,-122.3878772
564 market street 140,37.7898897,-122.4010874
425 mission street 131,37.7898491,-122.3963675
4017 24th street,37.7512473,-122.4324184
388 potrero street,37.7647572,-122.4077029
525 haight street,37.7718749,-122.430865
836 irving street,37.7641711,-122.4671354
2455 mason street,37.8063326,-122.4139529
609 hayes street,37.7762608,-122.4265294
3388 24th street,37.7522753,-122.420266
2380 lombard street,37.7994799,-122.4407009
1 front street annex 100,37.791999,-122.3988258
2234 polk street,37.7974154,-122.4218452
5 embarcadero center,37.7939434,-122.3963218
1840 fillmore street,37.7865433,-122.4332707
1110 ocean avenue,37.7234937,-122.4536087
1258 minnesota street,37.7543121,-122.3900479
1775 17th street,37.7647492,-122.4012374
191 warriors way 100,37.7676344,-122.3888646
300 folsom street,37.7887186,-122.3931719
399 golden gate avenue,37.7812661,-122.4169009
425 mission street 100,37.7879597,-122.3986876
549 castro street,37.7601088,-122.4346253
250 pine street,37.7923344,-122.4004814
637 larkin street,37.78386950000001,-122.4178932
808 geary street,37.786513,-122.416741
59 30th street,37.7422077,-122.4231424
1365 stockton street,37.7984416,-122.4089695
667 monterey boulevard,37.7312856,-122.4504238
1310 noriega street,37.7543817,-122.4778112
5733 geary boulevard,37.7799623,-122.4810784
239 clement street,37.7829339,-122.4619168
110 leland avenue,37.712237,-122.405782
2428 san bruno avenue,37.7316677,-122.4056309
2511 noriega street,37.7533996,-122.490616
708 vallejo street,37.7987046,-122.4092186
370 grove street,37.7780873,-122.4226795
401 valencia street,37.7664394,-122.4217291
725 columbus avenue,37.8013374,-122.4119799
3872 sacramento street,37.7871122,-122.4563727
145 02nd street,37.78756509999999,-122.3989307
pier 39 q 112,37.8096632,-122.4102547
2170 mission street,37.76231560000001,-122.419712
1100 pine street,37.790641,-122.414141
996 pine street,37.7909211,-122.4121347
580 geary street,37.7869218,-122.4130193
1915 irving street,37.7633718,-122.4784754
296 ocean avenue,37.7232224,-122.4430732
401 geary street,37.78701909999999,-122.410036
955 larkin street,37.786883,-122.4185431
231 cortland avenue,37.7396287,-122.4190081
142 minna street,37.7868349,-122.4005176
64 14th street,37.7687808,-122.4148733
1737 post street 383,37.7851045,-122.4308832
845 market street fe11,37.7839767,-122.4054904
2101 fillmore street,37.788628,-122.434556
1001 great higway and jfk,37.7711349,-122.5112235
1101 polk street,37.7870009,-122.4201931
4207 judah street,37.76019300000001,-122.5072615
813 cortland avenue,37.7390035,-122.4144084
3088 balboa street,37.7761404,-122.4918394
885 brannan street b3,37.771464,-122.40502
555 beach street,37.80683310000001,-122.4180416
4404 03rd street,37.7378277,-122.3898439
3299 mission street,37.7440729,-122.420559
1210 polk e street,37.7880857,-122.4200213
1210 polk street,37.7880857,-122.4200213
2769 lombard street,37.7983319,-122.4470445
1000 guerrero street,37.7549978,-122.4235878
242 244 gough street,37.775668,-122.4225945
3318 mission street,37.743722,-122.4214415
1515 3rd street 100,37.7693006,-122.388947
341 kearny street,37.7913914,-122.404346
317 connecticut street,37.7623083,-122.3971931
2886 16th street,37.7655031,-122.4171293
555 california street concourse,37.7926278,-122.4035395
1250 ocean avenue,37.7240247,-122.4557431
3251 20th avenue 250a,37.7277303,-122.4769749
33 kearny street,37.7883469,-122.4037208
601 mission bay boulevard north,37.7707779,-122.3914399
65 cambon drive,37.7177842,-122.4739235
1700 owens street,37.7671312,-122.3936461
716 irving street,37.7642587,-122.4656438
77 van ness avenue 100,37.7760628,-122.4198501
5301 mission street b,37.7143521,-122.4427312
50 fremont street r2a,37.7905027,-122.3972152
2740 mission street,37.7530874,-122.4188975
90 charter oak avenue 35,37.736888,-122.4050063
3138 noriega street,37.7534889,-122.4977301
737 portola drive,37.7439111,-122.4535113
1 warriors way level 600 north,37.7680183,-122.3878772
2095 chestnut street,37.8005042,-122.437722
91 06th street,37.7812418,-122.4088295
3122 16th street,37.7651175,-122.4225751
1318 grant avenue,37.79914280000001,-122.4071655
650 jackson street,37.7963785,-122.406132
260 divisadero street,37.7715678,-122.4368979
1816 irving street,37.7637332,-122.4776161
1255 22nd street,37.7571251,-122.3941105
3277 sacramento street,37.78807279999999,-122.4468073
1862 divisadero street,37.7870333,-122.4400223
2162 a union street,37.7973246,-122.434921
75 1st street,37.7903475,-122.3977526
845 market street fe13b,37.7839767,-122.4054904
3226 geary boulevard,37.7818373,-122.4537697
1064 divisadero street,37.7795926,-122.4384706
448 balboa street,37.7774228,-122.4637518
506 castro street,37.7606715,-122.4351479
798 eddy street,37.783124,-122.4204302
1 market street d,37.7941766,-122.3948205
100 01st street ga01,,
100 montgomery street 116,37.7902753,-122.4020104
180 howard street,37.7911148,-122.3931759
2 embarcadero center r 2106,37.79478810000001,-122.3984101
350 california street,37.7934074,-122.400844
45 fremont street,37.7912679,-122.3971963
555 california street,37.7926278,-122.4035395
588 mission bay boulevard north,37.7711529,-122.3906349
655 montgomery street,37.7952421,-122.403654
3465 california street,37.7864423,-122.4511633
2224 mission street a,37.7613362,-122.4196269
4769 mission street,37.7219511,-122.4365276
3620 balboa street,37.7758612,-122.4977786
509 haight street,37.7719165,-122.4307741
40 belden place,37.7912867,-122.4036616
103 horne street,37.7266498,-122.3656532
258 divisadero,37.7715791,-122.4368991
816 irving street,37.76419569999999,-122.4666932
4023 18th street,37.760814,-122.4333314
5850 geary boulevard,37.7804597,-122.4823644
2138 irving street,37.7635361,-122.4811537
pier 33,37.8066719,-122.4044426
1235 09th avenue,37.765254,-122.4667869
2116 irving street,37.76357120000001,-122.4807381
3251 20th avenue 160,37.7277652,-122.4768312
4482 mission street,37.7261556,-122.4340421
pier 3,37.7976602,-122.395642
533 jackson street,37.7961373,-122.4045819
301 hayes street,37.7769467,-122.4214955
684 larkin street,37.7841336,-122.4175686
545 post street,37.78783320000001,-122.4107721
3319 mission street,37.7437815,-122.4208587
322 kearny street,37.7911799,-122.4039145
2623 san bruno avenue,37.7286013,-122.4037425
2123 polk street,37.7963052,-122.4220672
1728 buchanan street fl 2,37.786061,-122.429759
3378 18th street,37.7620489,-122.4188753
855 terry francois boulevard,37.7640885,-122.3871969
1325 florida street,37.7504514,-122.4096258
2140 polk street,37.796544,-122.4217788
1395 22nd street,37.7569607,-122.3947812
30 otis street,37.7729542,-122.4194284
4528 mission street,37.7255834,-122.4345126
